time,my_x,my_y,my_z,my_speed,my_roll,my_pitch,my_yaw,target_id,target_x,target_y,target_z,target_speed,target_gecikme_ms,target_dist,kilitlenme,cmd_yaw,cmd_speed,cmd_alt,mode_log
1764462464.46,352.31,-0.00,50.01,0.00,0.00,0.00,0.00,3,42.03,-34.24,102.12,42.19,37.81,316.49,0,180.00,22.00,102.12,🚧 SAHA DIŞI
1764462464.48,352.31,0.00,50.01,0.00,0.00,0.00,0.00,3,41.87,-34.06,102.12,42.19,40.85,316.62,0,180.00,22.00,102.12,🚧 SAHA DIŞI
1764462464.51,352.31,0.00,50.02,0.00,0.00,0.00,0.00,3,42.09,-34.41,102.12,42.19,39.22,316.44,0,180.00,22.00,102.12,🚧 SAHA DIŞI
1764462464.53,352.31,0.00,50.03,0.00,-0.00,0.00,0.00,3,43.76,-35.81,102.10,41.01,72.29,314.96,0,180.00,22.00,102.10,🚧 SAHA DIŞI
1764462464.55,352.31,0.00,50.05,0.00,-0.00,0.00,0.00,3,44.30,-35.95,102.09,40.69,71.06,314.44,0,180.00,22.00,102.09,🚧 SAHA DIŞI
1764462464.57,352.31,0.00,50.07,0.00,-0.00,0.00,0.00,3,43.47,-35.26,102.05,39.54,31.51,315.17,0,180.00,22.00,102.05,🚧 SAHA DIŞI
1764462464.59,352.31,0.00,50.10,0.00,-0.00,0.00,0.00,3,43.90,-35.37,102.01,39.23,31.43,314.75,0,180.00,22.00,102.01,🚧 SAHA DIŞI
1764462464.61,352.31,0.00,50.14,0.00,-0.00,0.00,0.00,3,45.24,-35.83,101.96,38.22,56.31,313.47,0,180.00,22.00,101.96,🚧 SAHA DIŞI
1764462464.63,352.31,0.00,50.18,0.00,-0.00,0.00,0.00,3,45.69,-35.91,101.91,37.94,57.32,313.02,0,180.00,22.00,101.91,🚧 SAHA DIŞI
1764462464.65,352.31,-0.00,50.24,0.00,-0.00,0.00,0.00,3,45.84,-35.90,101.87,37.87,56.28,312.86,0,180.00,22.00,101.87,🚧 SAHA DIŞI
1764462464.67,352.31,0.00,50.31,0.00,-0.00,0.00,0.00,3,45.70,-35.69,101.81,37.06,42.21,312.95,0,180.00,22.00,101.81,🚧 SAHA DIŞI
1764462464.70,352.31,0.00,50.38,0.00,-0.00,-0.00,0.00,3,45.93,-35.66,101.75,36.85,42.29,312.70,0,180.00,22.00,101.75,🚧 SAHA DIŞI
1764462464.72,352.31,0.00,50.48,0.00,-0.00,-0.00,0.00,3,46.66,-35.75,101.73,36.23,45.44,311.97,0,180.00,22.00,101.73,🚧 SAHA DIŞI
1764462464.74,352.31,-0.00,50.58,0.00,-0.00,-0.00,0.00,3,47.01,-35.76,101.70,36.01,44.64,311.61,0,180.00,22.00,101.70,🚧 SAHA DIŞI
1764462464.76,352.31,-0.00,50.70,0.00,0.00,-0.00,0.00,3,47.22,-35.75,101.67,35.95,44.61,311.38,0,180.00,22.00,101.67,🚧 SAHA DIŞI
1764462464.78,352.31,-0.00,50.84,0.00,0.00,-0.00,0.00,3,47.39,-35.65,101.62,35.51,41.98,311.17,0,180.00,22.00,101.62,🚧 SAHA DIŞI
1764462464.80,352.31,-0.00,51.00,0.00,0.00,-0.00,0.00,3,47.74,-35.61,101.58,35.40,43.85,310.79,0,180.00,22.00,101.58,🚧 SAHA DIŞI
1764462464.82,352.31,0.00,51.16,0.00,0.00,-0.00,0.00,3,48.79,-35.54,101.51,35.14,68.78,309.71,0,180.00,22.00,101.51,🚧 SAHA DIŞI
1764462464.84,352.31,-0.00,51.36,0.00,0.00,-0.00,0.00,3,48.89,-35.42,101.46,35.07,67.56,309.56,0,180.00,22.00,101.46,🚧 SAHA DIŞI
1764462464.87,352.31,0.00,51.56,0.00,0.00,-0.00,0.00,3,49.42,-35.21,101.39,35.04,74.29,308.98,0,180.00,22.00,101.39,🚧 SAHA DIŞI
1764462464.89,352.31,-0.00,51.79,0.00,0.00,-0.00,0.00,3,49.78,-35.07,101.33,35.03,75.47,308.56,0,180.00,22.00,101.33,🚧 SAHA DIŞI
1764462464.91,352.31,-0.00,52.03,0.00,0.00,-0.00,0.00,3,49.86,-34.99,101.28,35.03,76.24,308.43,0,180.00,22.00,101.28,🚧 SAHA DIŞI
1764462464.93,352.31,-0.00,52.30,0.00,0.00,-0.00,0.00,3,49.60,-34.77,101.33,35.21,61.54,308.63,0,180.00,22.00,101.33,🚧 SAHA DIŞI
1764462464.95,352.31,-0.00,52.60,0.00,0.00,-0.00,0.00,3,50.19,-34.64,101.31,35.26,63.71,307.98,0,180.00,22.00,101.31,🚧 SAHA DIŞI
1764462464.97,352.31,-0.00,52.91,0.00,0.00,-0.00,0.00,3,49.97,-34.51,101.28,35.67,46.08,308.13,0,180.00,22.00,101.28,🚧 SAHA DIŞI
1764462464.99,352.31,-0.00,53.25,0.00,0.00,-0.00,0.00,3,50.27,-34.36,101.24,35.78,46.08,307.75,0,180.00,22.00,101.24,🚧 SAHA DIŞI
1764462465.01,352.31,-0.00,53.61,0.00,0.00,-0.00,0.00,3,50.40,-34.26,101.20,35.81,45.14,307.55,0,180.00,22.00,101.20,🚧 SAHA DIŞI
1764462465.03,352.31,-0.00,54.02,0.00,0.00,-0.00,0.00,3,51.08,-33.92,101.14,36.39,61.26,306.78,0,180.00,22.00,101.14,🚧 SAHA DIŞI
1764462465.06,352.31,-0.00,54.46,0.00,0.00,-0.00,0.00,3,51.36,-33.73,101.09,36.55,62.38,306.41,0,180.00,22.00,101.09,🚧 SAHA DIŞI
1764462465.08,352.31,-0.00,54.92,0.00,0.00,-0.00,0.00,3,51.49,-33.49,101.03,37.35,58.21,306.17,0,180.00,22.00,101.03,🚧 SAHA DIŞI
1764462465.10,352.31,-0.00,55.39,0.00,0.00,-0.00,0.00,3,51.71,-33.29,100.98,37.56,58.62,305.86,0,180.00,22.00,100.98,🚧 SAHA DIŞI
1764462465.12,352.31,-0.00,55.90,0.00,0.00,-0.00,0.00,3,51.84,-33.16,100.94,37.62,59.61,305.63,0,180.00,22.00,100.94,🚧 SAHA DIŞI
1764462465.14,352.31,-0.00,56.44,0.00,0.00,-0.00,0.00,3,52.50,-32.69,100.90,38.55,69.32,304.85,0,180.00,22.00,100.90,🚧 SAHA DIŞI
1764462465.16,352.31,-0.00,56.99,0.00,0.00,-0.00,0.00,3,52.55,-32.52,100.85,38.80,69.40,304.70,0,180.00,22.00,100.85,🚧 SAHA DIŞI
1764462465.18,352.31,-0.00,57.60,0.00,0.00,-0.00,0.00,3,52.67,-32.29,100.84,39.84,58.43,304.46,0,180.00,22.00,100.84,🚧 SAHA DIŞI
1764462465.20,352.31,-0.00,58.25,0.00,0.00,-0.00,0.00,3,53.20,-31.91,100.81,40.18,58.76,303.81,0,180.00,22.00,100.81,🚧 SAHA DIŞI
1764462465.22,352.31,-0.00,58.96,0.00,0.00,-0.00,0.00,3,53.78,-31.38,100.77,41.44,65.29,303.08,0,180.00,22.00,100.77,🚧 SAHA DIŞI
1764462465.24,352.31,-0.00,59.67,0.00,0.00,-0.00,360.00,3,53.89,-31.19,100.74,41.78,64.44,302.84,0,180.00,22.00,100.74,🚧 SAHA DIŞI
1764462465.27,352.31,-0.00,60.42,0.00,0.00,-0.00,360.00,3,54.02,-31.03,100.71,41.87,66.08,302.60,0,180.00,22.00,100.71,🚧 SAHA DIŞI
1764462465.29,352.31,-0.00,61.21,0.00,0.00,-0.00,360.00,3,54.18,-30.74,100.67,43.15,62.19,302.31,0,180.00,22.00,100.67,🚧 SAHA DIŞI
1764462465.31,352.31,-0.00,62.03,0.00,0.00,-0.00,360.00,3,54.35,-30.50,100.64,43.49,62.78,302.00,0,180.00,22.00,100.64,🚧 SAHA DIŞI
1764462465.33,352.31,-0.00,62.88,0.00,0.00,-0.00,360.00,3,54.83,-29.94,100.59,44.93,65.95,301.35,0,180.00,22.00,100.59,🚧 SAHA DIŞI
1764462465.35,352.31,-0.00,63.80,0.00,0.00,-0.00,360.00,3,55.06,-29.65,100.55,45.31,65.68,300.98,0,180.00,22.00,100.55,🚧 SAHA DIŞI
1764462465.37,352.31,-0.00,64.76,0.00,0.00,-0.00,360.00,3,55.23,-29.43,100.52,45.41,66.56,300.67,0,180.00,22.00,100.52,🚧 SAHA DIŞI
1764462465.39,352.31,-0.00,65.75,0.00,0.00,-0.00,360.00,3,55.28,-29.21,100.51,46.83,60.62,300.48,0,180.00,22.00,100.51,🚧 SAHA DIŞI
1764462465.41,352.31,-0.00,66.82,0.00,0.00,-0.00,360.00,3,55.26,-29.07,100.46,47.21,60.09,300.36,0,180.00,22.00,100.46,🚧 SAHA DIŞI
1764462465.43,352.31,-0.00,67.87,0.00,0.00,-0.00,360.00,3,56.11,-28.12,100.44,48.64,67.13,299.31,0,180.00,22.00,100.44,🚧 SAHA DIŞI
1764462465.45,352.31,-0.00,68.99,0.00,0.00,-0.00,360.00,3,56.35,-27.81,100.43,49.12,66.04,298.93,0,180.00,22.00,100.43,🚧 SAHA DIŞI
1764462465.48,352.31,-0.00,70.12,0.00,0.00,-0.00,360.00,3,56.66,-27.44,100.41,49.25,66.63,298.46,0,180.00,22.00,100.41,🚧 SAHA DIŞI
1764462465.50,352.31,-0.00,71.32,0.00,0.00,-0.00,360.00,3,56.90,-27.03,100.38,50.75,65.17,298.07,0,180.00,22.00,100.38,🚧 SAHA DIŞI
1764462465.52,352.31,-0.00,72.63,0.00,0.00,-0.00,360.00,3,56.93,-26.91,100.36,51.16,64.51,297.90,0,180.00,22.00,100.36,🚧 SAHA DIŞI
1764462465.54,352.31,-0.00,73.93,0.00,0.00,-0.00,360.00,3,57.30,-26.33,100.33,52.75,65.28,297.36,0,180.00,22.00,100.33,🚧 SAHA DIŞI
1764462465.56,352.31,-0.00,75.26,0.00,0.00,-0.00,360.00,3,57.49,-26.01,100.31,53.18,65.72,297.02,0,180.00,22.00,100.31,🚧 SAHA DIŞI
1764462465.58,352.31,-0.00,76.68,0.00,0.00,-0.00,360.00,3,56.68,-26.82,100.29,54.80,33.04,297.79,0,180.00,22.00,100.29,🚧 SAHA DIŞI
1764462465.60,352.31,-0.00,78.12,0.00,0.00,-0.00,360.00,3,56.92,-26.44,100.26,55.23,33.10,297.40,0,180.00,22.00,100.26,🚧 SAHA DIŞI
1764462465.62,352.31,-0.00,79.61,0.00,0.00,-0.00,360.00,3,57.07,-26.20,100.24,55.34,33.40,297.12,0,180.00,22.00,100.24,🚧 SAHA DIŞI
1764462465.64,352.31,-0.00,81.21,0.00,0.00,-0.00,360.00,3,57.63,-25.38,100.24,56.87,40.56,296.39,0,180.00,22.00,100.24,🚧 SAHA DIŞI
1764462465.66,352.31,-0.00,82.77,0.00,0.00,-0.00,360.00,3,58.06,-24.77,100.23,57.25,40.08,295.81,0,180.00,22.00,100.23,🚧 SAHA DIŞI
1764462465.69,352.31,-0.00,84.43,0.00,0.00,-0.00,360.00,3,59.70,-22.44,100.20,58.85,75.20,293.89,0,180.00,22.00,100.20,🚧 SAHA DIŞI
1764462465.71,352.31,-0.00,86.13,0.00,0.00,-0.00,360.00,3,60.02,-21.90,100.18,59.29,75.05,293.45,0,180.00,22.00,100.18,🚧 SAHA DIŞI
1764462465.73,352.31,-0.00,88.00,0.00,0.00,-0.00,360.00,3,60.04,-21.81,100.17,59.40,74.47,293.34,0,180.00,22.00,100.17,🚧 SAHA DIŞI
1764462465.75,352.31,-0.00,89.79,0.00,0.00,-0.00,360.00,3,60.27,-21.32,100.15,60.90,72.48,293.00,0,180.00,22.00,100.15,🚧 SAHA DIŞI
1764462465.77,352.31,-0.00,91.65,0.00,0.00,-0.00,360.00,3,60.37,-21.09,100.13,61.30,72.35,292.83,0,180.00,22.00,100.13,🚧 SAHA DIŞI
1764462465.79,352.31,-0.00,93.63,0.00,0.00,-0.00,360.00,3,60.55,-20.67,100.11,62.84,68.33,292.57,0,180.00,22.00,100.11,🚧 SAHA DIŞI
1764462465.81,352.31,-0.00,95.68,0.00,0.00,-0.00,360.00,3,60.83,-20.14,100.09,63.26,69.39,292.21,0,180.00,22.00,100.09,🚧 SAHA DIŞI
1764462465.83,352.31,-0.00,97.95,0.00,0.00,0.00,360.00,3,60.86,-20.05,100.08,63.37,68.45,292.15,0,180.00,22.00,100.08,🚧 SAHA DIŞI
1764462465.85,352.31,-0.00,100.06,0.00,0.00,0.00,360.00,3,60.79,-20.02,100.07,64.81,57.68,292.21,0,180.00,22.00,100.07,🚧 SAHA DIŞI
1764462465.87,352.31,-0.00,102.24,0.00,0.00,0.00,360.00,3,61.09,-19.45,100.04,65.19,58.90,291.88,0,180.00,22.00,100.04,🚧 SAHA DIŞI
1764462465.90,352.31,-0.00,104.47,0.00,0.00,0.00,360.00,3,62.26,-17.43,100.02,66.56,76.75,290.62,0,180.00,22.00,100.02,🚧 SAHA DIŞI
1764462465.92,352.31,-0.00,107.13,0.00,0.00,0.00,360.00,3,62.49,-16.94,100.02,67.02,75.91,290.41,0,180.00,22.00,100.02,🚧 SAHA DIŞI
1764462465.94,352.31,-0.00,109.53,0.00,0.00,0.00,360.00,3,62.93,-16.06,100.00,68.48,81.46,289.99,0,180.00,22.00,100.00,🚧 SAHA DIŞI
1764462465.96,352.31,-0.00,111.91,0.00,0.00,0.00,360.00,3,63.30,-15.32,99.99,68.87,82.30,289.67,0,180.00,22.00,99.99,🚧 SAHA DIŞI
1764462465.98,352.31,-0.00,114.49,0.00,0.00,0.00,360.00,3,63.42,-15.07,99.99,68.97,82.59,289.65,0,180.00,22.00,99.99,🚧 SAHA DIŞI
1764462466.00,352.31,-0.00,117.16,0.00,0.00,0.00,360.00,3,63.32,-15.10,99.98,70.27,71.35,289.89,0,180.00,22.00,99.98,🚧 SAHA DIŞI
1764462466.02,352.31,-0.00,119.83,0.00,0.00,0.00,360.00,3,63.50,-14.73,99.98,70.62,71.88,289.87,0,180.00,22.00,99.98,🚧 SAHA DIŞI
1764462466.04,352.31,-0.00,122.69,0.00,-1.89,-9.93,21.45,3,64.04,-13.63,99.97,71.92,80.44,289.49,0,180.00,22.00,99.97,🚧 SAHA DIŞI
1764462466.07,352.31,0.00,122.69,0.00,-1.89,-9.93,21.45,3,64.20,-13.26,99.96,72.27,80.71,289.31,0,180.00,22.00,99.96,🚧 SAHA DIŞI
1764462466.09,352.31,0.00,122.69,0.00,-1.89,-9.93,21.45,3,64.33,-12.99,99.96,72.37,80.55,289.18,0,180.00,22.00,99.96,🚧 SAHA DIŞI
1764462466.11,352.32,0.00,122.69,0.00,-1.89,-9.93,21.45,3,64.89,-11.80,99.94,73.56,80.24,288.57,0,180.00,22.00,99.94,🚧 SAHA DIŞI
1764462466.14,352.32,0.00,122.69,0.00,-1.89,-9.93,21.45,3,65.22,-11.12,99.94,73.86,79.91,288.21,0,180.00,22.00,99.94,🚧 SAHA DIŞI
1764462466.16,352.32,0.00,122.69,0.00,-1.89,-9.93,21.45,3,63.64,-13.98,99.96,75.05,25.47,289.91,0,180.00,22.00,99.96,🚧 SAHA DIŞI
1764462466.18,352.32,0.00,122.69,0.00,-1.89,-9.93,21.45,3,63.85,-13.51,99.95,75.37,24.65,289.67,0,180.00,22.00,99.95,🚧 SAHA DIŞI
1764462466.20,352.32,0.00,122.69,0.00,-1.89,-9.93,21.45,3,64.08,-13.00,99.95,76.49,22.98,289.42,0,180.00,22.00,99.95,🚧 SAHA DIŞI
1764462466.22,352.32,0.00,122.69,0.00,-1.89,-9.93,21.45,3,64.34,-12.44,99.96,76.79,24.03,289.14,0,180.00,22.00,99.96,🚧 SAHA DIŞI
1764462466.24,352.32,0.00,122.69,0.00,-1.89,-9.93,21.45,3,64.39,-12.32,99.96,76.87,23.07,289.08,0,180.00,22.00,99.96,🚧 SAHA DIŞI
1764462466.26,352.32,0.00,122.69,0.00,-1.89,-9.93,21.45,3,64.69,-11.70,99.96,77.87,24.29,288.77,0,180.00,22.00,99.96,🚧 SAHA DIŞI
1764462466.28,352.32,0.00,122.69,0.00,-1.89,-9.93,21.45,3,64.81,-11.42,99.97,78.14,23.68,288.63,0,180.00,22.00,99.97,🚧 SAHA DIŞI
1764462466.30,352.32,0.00,122.69,0.00,-1.89,-9.93,21.45,3,65.99,-8.99,99.97,79.11,48.29,287.37,0,180.00,22.00,99.97,🚧 SAHA DIŞI
1764462466.33,352.32,0.00,122.69,0.00,-1.89,-9.93,21.45,3,66.24,-8.44,99.97,79.38,48.42,287.11,0,180.00,22.00,99.97,🚧 SAHA DIŞI
1764462466.35,352.32,0.00,122.69,0.00,-1.89,-9.93,21.45,3,66.06,-8.74,99.98,80.28,35.18,287.29,0,180.00,22.00,99.98,🚧 SAHA DIŞI
1764462466.37,352.32,0.00,122.69,0.00,-1.89,-9.93,21.45,3,66.53,-7.70,99.98,80.51,35.20,286.79,0,180.00,22.00,99.98,🚧 SAHA DIŞI
1764462466.39,352.32,0.00,122.69,0.00,-1.89,-9.93,21.45,3,66.86,-6.91,99.98,80.58,36.37,286.45,0,180.00,22.00,99.98,🚧 SAHA DIŞI
1764462466.41,352.32,0.00,122.69,0.00,-1.89,-9.93,21.45,3,66.70,-7.16,99.99,81.35,22.84,286.61,0,180.00,22.00,99.99,🚧 SAHA DIŞI
1764462466.43,352.32,0.00,122.69,0.00,-1.89,-9.93,21.45,3,66.80,-6.94,99.99,81.56,22.34,286.51,0,180.00,22.00,99.99,🚧 SAHA DIŞI
1764462466.45,352.32,0.00,122.69,0.00,-1.89,-9.93,21.45,3,68.71,-2.85,99.99,82.30,68.24,284.54,0,180.00,22.00,99.99,🚧 SAHA DIŞI
1764462466.47,352.32,0.00,122.69,0.00,-1.89,-9.93,21.45,3,68.91,-2.39,100.00,82.49,68.75,284.32,0,180.00,22.00,100.00,🚧 SAHA DIŞI
1764462466.49,352.32,0.00,122.69,0.00,-1.89,-9.93,21.45,3,69.06,-2.08,100.01,82.55,68.39,284.18,0,180.00,22.00,100.01,🚧 SAHA DIŞI
1764462466.52,352.32,0.00,122.69,0.00,-1.89,-9.93,21.45,3,69.70,-0.65,100.02,83.16,80.90,283.53,0,180.00,22.00,100.02,🚧 SAHA DIŞI
1764462466.54,352.32,0.00,122.70,0.00,-1.89,-9.93,21.45,3,69.93,-0.13,100.04,83.32,81.53,283.30,0,180.00,22.00,100.04,🚧 SAHA DIŞI
1764462466.56,352.32,0.00,122.70,0.00,-1.89,-9.93,21.45,3,69.23,-1.63,100.07,83.88,51.46,284.01,0,180.00,22.00,100.07,🚧 SAHA DIŞI
1764462466.58,352.32,0.00,122.70,0.00,-1.89,-9.93,21.45,3,69.41,-1.21,100.08,84.03,50.82,283.82,0,180.00,22.00,100.08,🚧 SAHA DIŞI
1764462466.60,352.32,0.00,122.70,0.00,-1.89,-9.93,21.45,3,69.95,0.10,100.08,84.07,52.55,283.28,0,180.00,22.00,100.08,🚧 SAHA DIŞI
1764462466.62,352.32,0.00,122.70,0.00,-1.89,-9.93,21.45,3,70.49,1.38,100.08,84.52,61.47,282.74,0,180.00,22.00,100.08,🚧 SAHA DIŞI
1764462466.64,352.32,0.00,122.70,0.00,-1.89,-9.93,21.45,3,70.73,1.98,100.09,84.64,61.38,282.51,0,180.00,22.00,100.09,🚧 SAHA DIŞI
1764462466.66,352.33,0.00,122.70,0.00,-1.89,-9.93,21.45,3,69.86,0.05,100.12,85.03,26.77,283.37,0,180.00,22.00,100.12,🚧 SAHA DIŞI
1764462466.68,352.33,0.00,122.70,0.00,-1.89,-9.93,21.45,3,69.89,0.09,100.13,85.13,25.15,283.34,0,180.00,22.00,100.13,🚧 SAHA DIŞI
1764462466.71,352.33,0.00,122.70,0.00,-1.89,-9.93,21.45,3,70.44,1.31,100.16,85.43,29.81,282.79,0,180.00,22.00,100.16,🚧 SAHA DIŞI
1764462466.73,352.33,0.00,122.70,0.00,-1.89,-9.93,21.45,3,70.66,1.79,100.18,85.51,29.95,282.57,0,180.00,22.00,100.18,🚧 SAHA DIŞI
1764462466.75,352.33,0.00,122.70,0.00,-1.89,-9.93,21.45,3,70.66,1.76,100.20,85.53,28.63,282.57,0,180.00,22.00,100.20,🚧 SAHA DIŞI
1764462466.77,352.33,0.00,122.70,0.00,-1.89,-9.93,21.45,3,71.93,4.60,100.22,85.73,56.53,281.33,0,180.00,22.00,100.22,🚧 SAHA DIŞI
1764462466.79,352.33,0.00,122.70,0.00,-1.89,-9.93,21.45,3,72.11,4.99,100.25,85.78,56.54,281.16,0,180.00,22.00,100.25,🚧 SAHA DIŞI
1764462466.81,352.33,0.00,122.70,0.00,-1.89,-9.93,21.45,3,72.66,6.24,100.27,85.90,62.74,280.63,0,180.00,22.00,100.27,🚧 SAHA DIŞI
1764462466.83,352.33,0.00,122.70,0.00,-1.89,-9.93,21.45,3,73.11,7.33,100.27,85.93,62.77,280.21,0,180.00,22.00,100.27,🚧 SAHA DIŞI
1764462466.85,352.33,0.00,122.70,0.00,-1.89,-9.93,21.45,3,73.33,7.91,100.28,85.94,62.81,280.01,0,180.00,22.00,100.28,🚧 SAHA DIŞI
1764462466.87,352.33,0.00,122.70,0.00,-1.89,-9.93,21.45,3,72.75,6.60,100.30,85.97,38.29,280.56,0,180.00,22.00,100.30,🚧 SAHA DIŞI
1764462466.89,352.33,0.00,122.70,0.00,-1.89,-9.93,21.45,3,72.93,7.02,100.32,85.98,38.31,280.38,0,180.00,22.00,100.32,🚧 SAHA DIŞI
1764462466.91,352.33,0.00,122.70,0.00,-1.89,-9.93,21.45,3,74.19,9.81,100.35,85.92,66.10,279.21,0,180.00,22.00,100.35,🚧 SAHA DIŞI
1764462466.94,352.33,0.00,122.70,0.00,-1.89,-9.93,21.45,3,74.41,10.29,100.38,85.90,66.17,279.00,0,180.00,22.00,100.38,🚧 SAHA DIŞI
1764462466.96,352.33,0.00,122.70,0.00,-1.89,-9.93,21.45,3,74.27,9.92,100.42,85.76,53.59,279.13,0,180.00,22.00,100.42,🚧 SAHA DIŞI
1764462466.98,352.33,0.00,122.70,0.00,-1.89,-9.93,21.45,3,74.49,10.38,100.45,85.72,53.66,278.93,0,180.00,22.00,100.45,🚧 SAHA DIŞI
1764462467.00,352.33,0.00,122.70,0.00,-1.89,-9.93,21.45,3,74.64,10.70,100.48,85.71,53.77,278.79,0,180.00,22.00,100.48,🚧 SAHA DIŞI
1764462467.02,352.33,0.00,122.70,0.00,-1.89,-9.93,21.45,3,74.79,11.02,100.53,85.47,48.58,278.64,0,180.00,22.00,100.53,🚧 SAHA DIŞI
1764462467.04,352.33,0.00,122.70,0.00,-1.89,-9.93,21.45,3,74.95,11.38,100.56,85.41,48.27,278.49,0,180.00,22.00,100.56,🚧 SAHA DIŞI
1764462467.06,352.33,0.00,122.70,0.00,-1.89,-9.93,21.45,3,74.58,10.53,100.57,85.11,24.49,278.83,0,180.00,22.00,100.57,🚧 SAHA DIŞI
1764462467.08,352.33,0.00,122.70,0.00,-1.89,-9.93,21.45,3,74.90,11.30,100.59,85.01,24.53,278.54,0,180.00,22.00,100.59,🚧 SAHA DIŞI
1764462467.10,352.33,0.00,122.70,0.00,-1.89,-9.93,21.45,3,75.12,11.83,100.60,84.98,24.43,278.35,0,180.00,22.00,100.60,🚧 SAHA DIŞI
1764462467.12,352.33,0.00,122.70,0.00,-1.89,-9.93,21.45,3,77.02,16.02,100.63,84.58,72.71,276.66,0,180.00,22.00,100.63,🚧 SAHA DIŞI
1764462467.14,352.33,0.00,122.70,0.00,-1.89,-9.93,21.45,3,77.18,16.32,100.66,84.48,72.62,276.52,0,180.00,22.00,100.66,🚧 SAHA DIŞI
1764462467.17,352.33,0.00,122.70,0.00,-1.89,-9.93,21.45,3,77.16,16.20,100.71,83.98,63.65,276.52,0,180.00,22.00,100.71,🚧 SAHA DIŞI
1764462467.19,352.33,0.00,122.70,0.00,-1.89,-9.93,21.45,3,77.37,16.60,100.74,83.84,63.92,276.34,0,180.00,22.00,100.74,🚧 SAHA DIŞI
1764462467.21,352.33,0.00,122.70,0.00,-1.89,-9.93,21.45,3,77.52,16.90,100.78,83.81,63.75,276.20,0,180.00,22.00,100.78,🚧 SAHA DIŞI
1764462467.23,352.34,0.00,122.70,0.00,-1.89,-9.93,21.45,3,76.63,14.90,100.82,83.25,29.35,276.98,0,180.00,22.00,100.82,🚧 SAHA DIŞI
1764462467.25,352.34,0.00,122.70,0.00,-1.89,-9.93,21.45,3,76.87,15.41,100.86,83.10,30.79,276.75,0,180.00,22.00,100.86,🚧 SAHA DIŞI
1764462467.27,352.34,0.00,122.70,0.00,-1.89,-9.93,21.45,3,77.10,15.82,100.90,82.43,30.61,276.55,0,180.00,22.00,100.90,🚧 SAHA DIŞI
1764462467.29,352.34,0.00,122.70,0.00,-1.89,-9.93,21.45,3,77.60,16.94,100.91,82.26,30.72,276.11,0,180.00,22.00,100.91,🚧 SAHA DIŞI
1764462467.31,352.34,0.00,122.70,0.00,-1.89,-9.93,21.45,3,78.65,19.16,100.94,81.50,50.44,275.22,0,180.00,22.00,100.94,🚧 SAHA DIŞI
1764462467.33,352.34,0.00,122.70,0.00,-1.89,-9.93,21.45,3,78.92,19.75,100.98,81.30,49.73,274.99,0,180.00,22.00,100.98,🚧 SAHA DIŞI
1764462467.35,352.34,0.00,122.70,0.00,-1.89,-9.93,21.45,3,79.01,19.92,101.01,81.24,49.61,274.90,0,180.00,22.00,101.01,🚧 SAHA DIŞI
1764462467.37,352.34,0.00,122.70,0.00,-1.89,-9.93,21.45,3,78.81,19.42,101.05,80.44,33.03,275.07,0,180.00,22.00,101.05,🚧 SAHA DIŞI
1764462467.40,352.34,0.00,122.70,0.00,-1.89,-9.93,21.45,3,78.93,19.61,101.09,80.22,32.34,274.96,0,180.00,22.00,101.09,🚧 SAHA DIŞI
1764462467.42,352.34,0.00,122.70,0.00,-1.89,-9.93,21.45,3,80.17,22.05,101.15,79.31,64.23,273.91,0,180.00,22.00,101.15,🚧 SAHA DIŞI
1764462467.44,352.34,0.00,122.70,0.00,-1.89,-9.93,21.45,3,80.48,22.62,101.20,79.06,65.35,273.64,0,180.00,22.00,101.20,🚧 SAHA DIŞI
1764462467.46,352.34,0.00,122.70,0.00,-1.89,-9.93,21.45,3,80.61,22.84,101.25,78.99,64.42,273.53,0,180.00,22.00,101.25,🚧 SAHA DIŞI
1764462467.48,352.34,0.00,122.70,0.00,-1.89,-9.93,21.45,3,81.63,24.80,101.32,78.04,82.27,272.68,0,180.00,22.00,101.32,🚧 SAHA DIŞI
1764462467.50,352.34,0.00,122.70,0.00,-1.89,-9.93,21.45,3,81.87,25.20,101.37,77.78,82.46,272.48,0,180.00,22.00,101.37,🚧 SAHA DIŞI
1764462467.52,352.34,0.00,122.70,0.00,-1.89,-9.93,21.45,3,80.47,22.35,101.40,76.71,36.44,273.62,0,180.00,22.00,101.40,🚧 SAHA DIŞI
1764462467.54,352.34,0.01,122.70,0.00,-1.89,-9.93,21.45,3,80.87,23.12,101.42,76.44,36.05,273.28,0,180.00,22.00,101.42,🚧 SAHA DIŞI
1764462467.56,352.34,0.01,122.70,0.00,-1.89,-9.93,21.45,3,81.12,23.60,101.44,76.35,36.37,273.08,0,180.00,22.00,101.44,🚧 SAHA DIŞI
1764462467.59,352.34,0.01,122.70,0.00,-1.89,-9.93,21.45,3,82.72,26.62,101.49,75.27,73.42,271.76,0,180.00,22.00,101.49,🚧 SAHA DIŞI
1764462467.61,352.34,0.01,122.70,0.00,-1.89,-9.93,21.45,3,82.93,26.96,101.53,74.97,74.41,271.58,0,180.00,22.00,101.53,🚧 SAHA DIŞI
1764462467.63,352.34,0.01,122.70,0.00,-1.88,-9.93,21.45,3,81.80,24.71,101.57,73.75,33.96,272.49,0,180.00,22.00,101.57,🚧 SAHA DIŞI
1764462467.65,352.34,0.01,122.70,0.00,-1.88,-9.93,21.45,3,82.03,25.08,101.62,73.43,33.59,272.29,0,180.00,22.00,101.62,🚧 SAHA DIŞI
1764462467.67,352.34,0.01,122.70,0.00,-1.88,-9.93,21.45,3,83.96,28.48,101.71,72.15,81.17,270.71,0,180.00,22.00,101.71,🚧 SAHA DIŞI
1764462467.69,352.34,0.01,122.70,0.00,-1.88,-9.93,21.45,3,84.16,28.74,101.76,71.81,80.21,270.53,0,180.00,22.00,101.76,🚧 SAHA DIŞI
1764462467.71,352.34,0.01,122.70,0.00,-1.88,-9.93,21.45,3,84.33,28.99,101.81,71.72,81.04,270.39,0,180.00,22.00,101.81,🚧 SAHA DIŞI
1764462467.73,352.34,0.01,122.70,0.00,-1.89,-9.93,21.45,3,82.79,26.14,101.87,70.46,27.15,271.62,0,180.00,22.00,101.87,🚧 SAHA DIŞI
1764462467.75,352.34,0.01,122.70,0.00,-1.89,-9.93,21.45,3,82.82,26.19,101.92,70.12,27.03,271.59,0,180.00,22.00,101.92,🚧 SAHA DIŞI
1764462467.77,352.35,0.01,122.70,0.00,-1.89,-9.93,21.45,3,84.19,28.48,101.96,68.83,49.91,270.46,0,180.00,22.00,101.96,🚧 SAHA DIŞI
1764462467.80,352.35,0.01,122.70,0.00,-1.89,-9.93,21.45,3,84.59,29.13,101.99,68.38,50.99,270.13,0,180.00,22.00,101.99,🚧 SAHA DIŞI
1764462467.82,352.35,0.01,122.70,0.00,-1.89,-9.93,21.45,3,84.77,29.41,102.02,68.26,50.72,269.98,0,180.00,22.00,102.02,🚧 SAHA DIŞI
1764462467.84,352.35,0.01,122.70,0.00,-1.89,-9.93,21.45,3,84.49,28.82,102.07,66.88,38.28,270.19,0,180.00,22.00,102.07,🚧 SAHA DIŞI
1764462467.86,352.35,0.01,122.70,0.00,-1.89,-9.93,21.45,3,85.00,29.59,102.12,66.51,40.85,269.76,0,180.00,22.00,102.12,🚧 SAHA DIŞI
1764462467.88,352.35,0.01,122.70,0.00,-1.89,-9.93,21.45,3,85.53,30.29,102.20,65.03,52.75,269.31,0,180.00,22.00,102.20,🚧 SAHA DIŞI
1764462467.90,352.35,0.01,122.70,0.00,-1.89,-9.93,21.45,3,85.70,30.47,102.25,64.64,52.35,269.15,0,180.00,22.00,102.25,🚧 SAHA DIŞI
1764462467.92,352.35,0.01,122.70,0.00,-1.89,-9.93,21.45,3,85.80,30.55,102.30,64.53,51.97,269.07,0,180.00,22.00,102.30,🚧 SAHA DIŞI
1764462467.94,352.35,0.01,122.70,0.00,-1.89,-9.93,21.45,3,87.16,32.49,102.40,63.09,81.34,267.94,0,180.00,22.00,102.40,🚧 SAHA DIŞI
1764462467.96,352.35,0.01,122.70,0.00,-1.89,-9.93,21.45,3,87.33,32.66,102.46,62.70,81.71,267.79,0,180.00,22.00,102.46,🚧 SAHA DIŞI
1764462467.98,352.35,0.01,122.70,0.00,-1.89,-9.93,21.45,3,86.55,31.26,102.51,61.15,51.28,268.39,0,180.00,22.00,102.51,🚧 SAHA DIŞI
1764462468.01,352.35,0.01,122.70,0.00,-1.89,-9.93,21.45,3,87.01,31.90,102.54,60.77,51.02,268.01,0,180.00,22.00,102.54,🚧 SAHA DIŞI
1764462468.03,352.35,0.01,122.70,0.00,-1.89,-9.93,21.45,3,87.74,32.81,102.59,59.16,57.85,267.39,0,180.00,22.00,102.59,🚧 SAHA DIŞI
1764462468.05,352.35,0.01,122.70,0.00,-1.89,-9.93,21.45,3,87.92,33.00,102.64,58.72,56.03,267.23,0,180.00,22.00,102.64,🚧 SAHA DIŞI
1764462468.07,352.35,0.01,122.70,0.00,-1.89,-9.93,21.45,3,88.06,33.13,102.69,58.61,56.03,267.11,0,180.00,22.00,102.69,🚧 SAHA DIŞI
1764462468.09,352.35,0.01,122.70,0.00,-1.89,-9.93,21.45,3,88.17,33.13,102.75,57.08,52.40,267.00,0,180.00,22.00,102.75,🚧 SAHA DIŞI
1764462468.11,352.35,0.01,122.70,0.00,-1.89,-9.93,21.45,3,88.35,33.27,102.81,56.67,52.49,266.83,0,180.00,22.00,102.81,🚧 SAHA DIŞI
1764462468.13,352.35,0.01,122.70,0.00,-1.89,-9.93,21.45,3,88.06,32.78,102.88,55.07,35.02,267.05,0,180.00,22.00,102.88,🚧 SAHA DIŞI
1764462468.15,352.35,0.01,122.70,0.00,-1.89,-9.93,21.45,3,88.24,32.92,102.95,54.64,34.76,266.88,0,180.00,22.00,102.95,🚧 SAHA DIŞI
1764462468.17,352.35,0.01,122.70,0.00,-1.89,-9.93,21.45,3,88.50,33.16,103.01,54.52,36.13,266.66,0,180.00,22.00,103.01,🚧 SAHA DIŞI
1764462468.19,352.35,0.01,122.70,0.00,-1.89,-9.93,21.45,3,89.97,34.74,103.14,53.01,72.91,265.39,0,180.00,22.00,103.14,🚧 SAHA DIŞI
1764462468.22,352.35,0.01,122.70,0.00,-1.89,-9.93,21.45,3,90.23,34.92,103.18,52.60,73.91,265.16,0,180.00,22.00,103.18,🚧 SAHA DIŞI
1764462468.24,352.35,0.01,122.70,0.00,-1.89,-9.93,21.45,3,90.75,35.31,103.22,51.12,74.71,264.69,0,180.00,22.00,103.22,🚧 SAHA DIŞI
1764462468.26,352.35,0.01,122.70,0.00,-1.89,-9.93,21.45,3,91.16,35.67,103.26,50.62,75.47,264.33,0,180.00,22.00,103.26,🚧 SAHA DIŞI
1764462468.28,352.35,0.01,122.70,0.00,-1.89,-9.93,21.45,3,91.31,35.77,103.31,50.48,73.95,264.20,0,180.00,22.00,103.31,🚧 SAHA DIŞI
1764462468.30,352.35,0.01,122.70,0.00,-1.89,-9.93,21.45,3,91.45,35.73,103.37,49.00,71.98,264.05,0,180.00,22.00,103.37,🚧 SAHA DIŞI
1764462468.32,352.35,0.01,122.70,0.00,-1.89,-9.93,21.45,3,91.62,35.79,103.43,48.60,71.99,263.89,0,180.00,22.00,103.43,🚧 SAHA DIŞI
1764462468.34,352.36,0.01,122.70,0.00,-1.89,-9.93,21.45,3,90.94,34.97,103.50,47.06,43.72,264.44,0,180.00,22.00,103.50,🚧 SAHA DIŞI
1764462468.36,352.36,0.01,122.70,0.00,-1.89,-9.93,21.45,3,91.23,35.14,103.57,46.65,43.74,264.17,0,180.00,22.00,103.57,🚧 SAHA DIŞI
1764462468.38,352.36,0.01,122.70,0.00,-1.89,-9.93,21.45,3,91.40,35.22,103.63,46.54,45.13,264.01,0,180.00,22.00,103.63,🚧 SAHA DIŞI
1764462468.40,352.36,0.01,122.70,0.00,-1.89,-9.93,21.45,3,91.71,35.35,103.72,45.15,44.29,263.71,0,180.00,22.00,103.72,🚧 SAHA DIŞI
1764462468.43,352.36,0.01,122.70,0.00,-1.89,-9.93,21.45,3,91.65,35.20,103.80,44.77,43.93,263.75,0,180.00,22.00,103.80,🚧 SAHA DIŞI
1764462468.45,352.36,0.01,122.70,0.00,-1.89,-9.93,21.45,3,91.38,34.70,103.85,43.37,46.10,263.95,0,180.00,22.00,103.85,🚧 SAHA DIŞI
1764462468.47,352.36,0.01,122.70,0.00,-1.89,-9.93,21.45,3,91.99,35.11,103.88,43.02,46.26,263.40,0,180.00,22.00,103.88,🚧 SAHA DIŞI
1764462468.49,352.36,0.01,122.70,0.00,-1.89,-9.93,21.45,3,92.87,35.59,103.96,41.70,54.99,262.59,0,180.00,22.00,103.96,🚧 SAHA DIŞI
1764462468.51,352.36,0.01,122.70,0.00,-1.88,-9.93,21.45,3,93.25,35.77,104.02,41.34,55.65,262.23,0,180.00,22.00,104.02,🚧 SAHA DIŞI
1764462468.53,352.36,0.01,122.70,0.00,-1.88,-9.93,21.45,3,93.50,35.89,104.08,41.24,55.43,261.99,0,180.00,22.00,104.08,🚧 SAHA DIŞI
1764462468.55,352.36,0.01,122.70,0.00,-1.88,-9.93,21.45,3,93.65,35.83,104.16,40.11,53.90,261.84,0,180.00,22.00,104.16,🚧 SAHA DIŞI
1764462468.57,352.36,0.01,122.70,0.00,-1.88,-9.93,21.45,3,93.92,35.90,104.23,39.80,54.13,261.57,0,180.00,22.00,104.23,🚧 SAHA DIŞI
1764462468.60,352.36,0.01,122.70,0.00,-1.88,-9.93,21.45,3,93.47,35.52,104.31,38.73,31.21,261.96,0,180.00,22.00,104.31,🚧 SAHA DIŞI
1764462468.62,352.36,0.01,122.70,0.00,-1.88,-9.93,21.45,3,93.60,35.51,104.38,38.44,30.08,261.83,0,180.00,22.00,104.38,🚧 SAHA DIŞI
1764462468.64,352.36,0.01,122.70,0.00,-1.88,-9.93,21.45,3,93.89,35.58,104.45,38.37,32.07,261.54,0,180.00,22.00,104.45,🚧 SAHA DIŞI
1764462468.66,352.36,0.01,122.70,0.00,-1.88,-9.93,21.45,3,94.50,35.70,104.62,37.51,43.43,260.94,0,180.00,22.00,104.62,🚧 SAHA DIŞI
1764462468.68,352.36,0.01,122.70,0.00,-1.88,-9.93,21.45,3,94.99,35.83,104.65,37.30,43.30,260.48,0,180.00,22.00,104.65,🚧 SAHA DIŞI
1764462468.70,352.36,0.01,122.70,0.00,-1.88,-9.93,21.45,3,95.20,35.78,104.70,36.55,37.79,260.26,0,180.00,22.00,104.70,🚧 SAHA DIŞI
1764462468.72,352.36,0.01,122.70,0.00,-1.88,-9.93,21.45,3,95.66,35.82,104.77,36.34,41.17,259.81,0,180.00,22.00,104.77,🚧 SAHA DIŞI
1764462468.74,352.36,0.01,122.70,0.00,-1.88,-9.93,21.45,3,96.96,35.96,104.90,35.79,67.97,258.53,0,180.00,22.00,104.90,🚧 SAHA DIŞI
1764462468.76,352.36,0.01,122.70,0.00,-1.88,-9.93,21.45,3,97.11,35.86,104.97,35.64,70.07,258.36,0,180.00,22.00,104.97,🚧 SAHA DIŞI
1764462468.78,352.36,0.01,122.70,0.00,-1.88,-9.93,21.45,3,97.13,35.78,105.02,35.60,68.39,258.33,0,180.00,22.00,105.02,🚧 SAHA DIŞI
1764462468.80,352.36,0.01,122.70,0.00,-1.88,-9.93,21.45,3,96.91,35.56,105.09,35.29,54.89,258.51,0,180.00,22.00,105.09,🚧 SAHA DIŞI
1764462468.83,352.36,0.01,122.70,0.00,-1.88,-9.93,21.45,3,97.09,35.47,105.17,35.20,54.91,258.33,0,180.00,22.00,105.17,🚧 SAHA DIŞI
1764462468.85,352.36,0.01,122.70,0.00,-1.88,-9.93,21.45,3,97.32,35.31,105.27,35.08,53.13,258.06,0,180.00,22.00,105.27,🚧 SAHA DIŞI
1764462468.87,352.36,0.01,122.70,0.00,-1.88,-9.93,21.45,3,97.69,35.21,105.37,35.05,54.81,257.68,0,180.00,22.00,105.37,🚧 SAHA DIŞI
1764462468.89,352.36,0.01,122.70,0.00,-1.88,-9.93,21.45,3,97.89,35.13,105.41,35.04,53.19,257.47,0,180.00,22.00,105.41,🚧 SAHA DIŞI
1764462468.91,352.37,0.01,122.70,0.00,-1.88,-9.93,21.45,3,98.13,34.98,105.45,35.13,51.43,257.21,0,180.00,22.00,105.45,🚧 SAHA DIŞI
1764462468.93,352.37,0.01,122.70,0.00,-1.88,-9.93,21.45,3,98.60,34.87,105.51,35.16,53.92,256.73,0,180.00,22.00,105.51,🚧 SAHA DIŞI
1764462468.95,352.37,0.01,122.70,0.00,-1.88,-9.93,21.45,3,98.09,34.78,105.55,35.47,29.52,257.21,0,180.00,22.00,105.55,🚧 SAHA DIŞI
1764462468.97,352.37,0.01,122.70,0.00,-1.88,-9.93,21.45,3,98.22,34.67,105.62,35.56,28.92,257.07,0,180.00,22.00,105.62,🚧 SAHA DIŞI
1764462468.99,352.37,0.01,122.70,0.00,-1.88,-9.93,21.45,3,98.35,34.58,105.68,35.58,29.03,256.92,0,180.00,22.00,105.68,🚧 SAHA DIŞI
1764462469.01,352.37,0.01,122.70,0.00,-1.88,-9.93,21.45,3,98.60,34.41,105.78,36.08,25.37,256.65,0,180.00,22.00,105.78,🚧 SAHA DIŞI
1764462469.03,352.37,0.01,122.70,0.00,-1.88,-9.93,21.45,3,98.69,34.30,105.85,36.22,25.75,256.54,0,180.00,22.00,105.85,🚧 SAHA DIŞI
1764462469.06,352.37,0.01,122.70,0.00,-1.88,-9.93,21.45,3,100.62,33.57,106.04,36.93,73.17,254.52,0,180.00,22.00,106.04,🚧 SAHA DIŞI
1764462469.08,352.37,0.01,122.70,0.00,-1.88,-9.93,21.45,3,100.94,33.34,106.13,37.12,73.59,254.17,0,180.00,22.00,106.13,🚧 SAHA DIŞI
1764462469.10,352.37,0.01,122.70,0.00,-1.88,-9.93,21.45,3,100.61,33.25,106.23,38.02,55.70,254.48,0,180.00,22.00,106.23,🚧 SAHA DIŞI
1764462469.12,352.37,0.01,122.70,0.00,-1.88,-9.93,21.45,3,100.87,32.70,106.29,38.25,59.38,254.14,0,180.00,22.00,106.29,🚧 SAHA DIŞI
1764462469.14,352.37,0.01,122.70,0.00,-1.88,-9.93,21.45,3,101.16,32.57,106.33,38.31,55.99,253.83,0,180.00,22.00,106.33,🚧 SAHA DIŞI
1764462469.16,352.37,0.01,122.70,0.00,-1.88,-9.93,21.45,3,101.54,32.29,106.39,39.31,56.10,253.42,0,180.00,22.00,106.39,🚧 SAHA DIŞI
1764462469.18,352.37,0.01,122.70,0.00,-1.88,-9.93,21.45,3,101.71,32.15,106.45,39.59,56.71,253.23,0,180.00,22.00,106.45,🚧 SAHA DIŞI
1764462469.20,352.37,0.01,122.70,0.00,-1.88,-9.93,21.45,3,101.90,31.92,106.54,40.76,51.00,253.01,0,180.00,22.00,106.54,🚧 SAHA DIŞI
1764462469.22,352.37,0.01,122.70,0.00,-1.88,-9.93,21.45,3,102.07,31.73,106.62,41.08,51.02,252.81,0,180.00,22.00,106.62,🚧 SAHA DIŞI
1764462469.25,352.37,0.01,122.70,0.00,-1.88,-9.93,21.45,3,102.16,31.63,106.68,41.16,50.57,252.71,0,180.00,22.00,106.68,🚧 SAHA DIŞI
1764462469.27,352.37,0.01,122.70,0.00,-1.89,-9.93,21.45,3,102.72,31.11,106.80,42.40,60.53,252.08,0,180.00,22.00,106.80,🚧 SAHA DIŞI
1764462469.29,352.37,0.01,122.70,0.00,-1.89,-9.93,21.45,3,103.08,30.78,106.89,42.73,62.53,251.68,0,180.00,22.00,106.89,🚧 SAHA DIŞI
1764462469.31,352.37,0.01,122.70,0.00,-1.89,-9.93,21.45,3,102.36,31.15,106.96,44.13,30.18,252.44,0,180.00,22.00,106.96,🚧 SAHA DIŞI
1764462469.33,352.37,0.01,122.70,0.00,-1.89,-9.93,21.45,3,102.41,31.03,107.01,44.50,29.64,252.37,0,180.00,22.00,107.01,🚧 SAHA DIŞI
1764462469.35,352.37,0.01,122.70,0.00,-1.89,-9.93,21.45,3,104.52,29.16,107.16,45.87,77.13,250.04,0,180.00,22.00,107.16,🚧 SAHA DIŞI
1764462469.37,352.37,0.01,122.70,0.00,-1.89,-9.93,21.45,3,104.95,28.68,107.23,46.33,76.06,249.56,0,180.00,22.00,107.23,🚧 SAHA DIŞI
1764462469.39,352.37,0.01,122.70,0.00,-1.89,-9.93,21.45,3,104.94,28.62,107.28,46.46,75.30,249.55,0,180.00,22.00,107.28,🚧 SAHA DIŞI
1764462469.41,352.37,0.01,122.70,0.00,-1.89,-9.93,21.45,3,104.34,29.00,107.33,47.90,45.78,250.20,0,180.00,22.00,107.33,🚧 SAHA DIŞI
1764462469.44,352.37,0.01,122.70,0.00,-1.89,-9.93,21.45,3,104.37,28.88,107.40,48.29,45.54,250.15,0,180.00,22.00,107.40,🚧 SAHA DIŞI
1764462469.46,352.37,0.01,122.70,0.00,-1.89,-9.93,21.45,3,104.08,29.03,107.48,49.84,27.36,250.45,0,180.00,22.00,107.48,🚧 SAHA DIŞI
1764462469.48,352.38,0.01,122.70,0.00,-1.89,-9.93,21.45,3,104.17,28.85,107.56,50.25,26.39,250.33,0,180.00,22.00,107.56,🚧 SAHA DIŞI
1764462469.50,352.38,0.01,122.70,0.00,-1.89,-9.93,21.45,3,104.34,28.61,107.64,50.36,26.32,250.13,0,180.00,22.00,107.64,🚧 SAHA DIŞI
1764462469.52,352.38,0.01,122.70,0.00,-1.89,-9.93,21.45,3,104.51,28.34,107.74,51.86,23.81,249.92,0,180.00,22.00,107.74,🚧 SAHA DIŞI
1764462469.54,352.38,0.01,122.70,0.00,-1.89,-9.93,21.45,3,104.70,28.06,107.81,52.27,23.76,249.71,0,180.00,22.00,107.81,🚧 SAHA DIŞI
1764462469.56,352.38,0.01,122.70,0.00,-1.89,-9.93,21.45,3,106.51,25.89,107.95,53.75,61.49,247.66,0,180.00,22.00,107.95,🚧 SAHA DIŞI
1764462469.58,352.38,0.01,122.70,0.00,-1.89,-9.93,21.45,3,106.88,25.36,108.02,54.25,61.38,247.24,0,180.00,22.00,108.02,🚧 SAHA DIŞI
1764462469.60,352.38,0.01,122.70,0.00,-1.89,-9.93,21.45,3,107.10,25.02,108.08,54.39,61.89,246.98,0,180.00,22.00,108.08,🚧 SAHA DIŞI
1764462469.62,352.38,0.01,122.70,0.00,-1.89,-9.93,21.45,3,106.41,25.74,108.12,55.91,35.65,247.74,0,180.00,22.00,108.12,🚧 SAHA DIŞI
1764462469.65,352.38,0.01,122.70,0.00,-1.89,-9.93,21.45,3,106.58,25.44,108.20,56.32,35.67,247.53,0,180.00,22.00,108.20,🚧 SAHA DIŞI
1764462469.67,352.38,0.01,122.70,0.00,-1.89,-9.93,21.45,3,106.60,25.32,108.29,57.91,27.64,247.50,0,180.00,22.00,108.29,🚧 SAHA DIŞI
1764462469.69,352.38,0.01,122.70,0.00,-1.89,-9.93,21.45,3,106.75,25.04,108.38,58.34,27.16,247.31,0,180.00,22.00,108.38,🚧 SAHA DIŞI
1764462469.71,352.38,0.01,122.70,0.00,-1.89,-9.93,21.45,3,107.85,23.42,108.55,59.94,47.01,246.05,0,180.00,22.00,108.55,🚧 SAHA DIŞI
1764462469.73,352.38,0.01,122.70,0.00,-1.89,-9.93,21.45,3,108.16,22.91,108.66,60.37,48.61,245.70,0,180.00,22.00,108.66,🚧 SAHA DIŞI
1764462469.75,352.38,0.01,122.70,0.00,-1.89,-9.93,21.45,3,108.10,22.93,108.72,60.48,46.36,245.75,0,180.00,22.00,108.72,🚧 SAHA DIŞI
1764462469.77,352.38,0.01,122.70,0.00,-1.89,-9.93,21.45,3,108.66,22.01,108.84,61.97,52.02,245.11,0,180.00,22.00,108.84,🚧 SAHA DIŞI
1764462469.79,352.38,0.01,122.70,0.00,-1.89,-9.93,21.45,3,108.35,22.28,108.92,62.37,51.48,245.43,0,180.00,22.00,108.92,🚧 SAHA DIŞI
1764462469.81,352.38,0.01,122.70,0.00,-1.89,-9.93,21.45,3,109.12,21.03,109.00,63.80,60.01,244.56,0,180.00,22.00,109.00,🚧 SAHA DIŞI
1764462469.84,352.38,0.01,122.70,0.00,-1.89,-9.93,21.45,3,109.49,20.40,109.06,64.28,58.59,244.13,0,180.00,22.00,109.06,🚧 SAHA DIŞI
1764462469.86,352.38,0.01,122.70,0.00,-1.89,-9.93,21.45,3,109.88,19.74,109.13,64.41,59.14,243.68,0,180.00,22.00,109.13,🚧 SAHA DIŞI
1764462469.88,352.38,0.01,122.70,0.00,-1.89,-9.93,21.45,3,111.14,17.62,109.28,65.83,82.29,242.25,0,180.00,22.00,109.28,🚧 SAHA DIŞI
1764462469.90,352.38,0.01,122.70,0.00,-1.89,-9.93,21.45,3,111.33,17.25,109.36,66.21,82.26,242.04,0,180.00,22.00,109.36,🚧 SAHA DIŞI
1764462469.92,352.38,0.01,122.70,0.00,-1.89,-9.93,21.45,3,110.34,18.73,109.39,67.66,47.32,243.14,0,180.00,22.00,109.39,🚧 SAHA DIŞI
1764462469.94,352.38,0.01,122.70,0.00,-1.89,-9.93,21.45,3,110.64,18.16,109.48,68.05,48.66,242.78,0,180.00,22.00,109.48,🚧 SAHA DIŞI
1764462469.96,352.38,0.01,122.70,0.00,-1.89,-9.93,21.45,3,111.04,17.37,109.61,69.46,53.77,242.32,0,180.00,22.00,109.61,🚧 SAHA DIŞI
1764462469.98,352.38,0.01,122.70,0.00,-1.89,-9.93,21.45,3,111.26,16.93,109.70,69.84,52.85,242.07,0,180.00,22.00,109.70,🚧 SAHA DIŞI
1764462470.01,352.38,0.01,122.70,0.00,-1.89,-9.93,21.45,3,111.36,16.71,109.77,69.94,52.16,241.95,0,180.00,22.00,109.77,🚧 SAHA DIŞI
1764462470.03,352.38,0.01,122.70,0.00,-1.89,-9.93,21.45,3,112.42,14.67,109.94,71.22,76.93,240.75,0,180.00,22.00,109.94,🚧 SAHA DIŞI
1764462470.05,352.39,0.01,122.70,0.00,-1.89,-9.93,21.45,3,112.86,13.84,110.00,71.53,76.61,240.26,0,180.00,22.00,110.00,🚧 SAHA DIŞI
1764462470.07,352.39,0.01,122.70,0.00,-1.89,-9.93,21.45,3,113.26,12.95,110.08,72.82,73.13,239.80,0,180.00,22.00,110.08,🚧 SAHA DIŞI
1764462470.09,352.39,0.01,122.70,0.00,-1.89,-9.93,21.45,3,113.43,12.57,110.15,73.17,73.10,239.62,0,180.00,22.00,110.15,🚧 SAHA DIŞI
1764462470.11,352.39,0.01,122.70,0.00,-1.89,-9.93,21.45,3,113.66,12.08,110.22,73.26,73.33,239.36,0,180.00,22.00,110.22,🚧 SAHA DIŞI
1764462470.13,352.39,0.01,122.70,0.00,-1.89,-9.93,21.45,3,113.60,12.10,110.29,74.41,64.14,239.41,0,180.00,22.00,110.29,🚧 SAHA DIŞI
1764462470.15,352.39,0.01,122.70,0.00,-1.89,-9.93,21.45,3,113.81,11.66,110.38,74.72,65.03,239.18,0,180.00,22.00,110.38,🚧 SAHA DIŞI
1764462470.17,352.39,0.01,122.70,0.00,-1.89,-9.93,21.45,3,114.16,10.90,110.49,75.87,68.30,238.79,0,180.00,22.00,110.49,🚧 SAHA DIŞI
1764462470.20,352.39,0.01,122.70,0.00,-1.89,-9.93,21.45,3,114.38,10.42,110.58,76.17,71.12,238.54,0,180.00,22.00,110.58,🚧 SAHA DIŞI
1764462470.22,352.39,0.01,122.70,0.00,-1.88,-9.93,21.45,3,114.43,10.29,110.64,76.26,67.93,238.48,0,180.00,22.00,110.64,🚧 SAHA DIŞI
1764462470.24,352.39,0.01,122.70,0.00,-1.88,-9.93,21.45,3,114.03,11.01,110.70,77.27,44.53,238.92,0,180.00,22.00,110.70,🚧 SAHA DIŞI
1764462470.26,352.39,0.01,122.70,0.00,-1.88,-9.93,21.45,3,114.18,10.53,110.80,77.55,44.70,238.74,0,180.00,22.00,110.80,🚧 SAHA DIŞI
1764462470.28,352.39,0.01,122.70,0.00,-1.88,-9.93,21.45,3,115.56,7.70,110.93,78.49,72.30,237.24,0,180.00,22.00,110.93,🚧 SAHA DIŞI
1764462470.30,352.39,0.01,122.70,0.00,-1.88,-9.93,21.45,3,115.82,7.13,111.00,78.80,69.97,236.97,0,180.00,22.00,111.00,🚧 SAHA DIŞI
1764462470.32,352.39,0.01,122.70,0.00,-1.88,-9.93,21.45,3,115.59,7.50,111.05,79.76,53.30,237.20,0,180.00,22.00,111.05,🚧 SAHA DIŞI
1764462470.34,352.39,0.01,122.70,0.00,-1.88,-9.93,21.45,3,115.78,7.08,111.13,80.02,53.11,237.00,0,180.00,22.00,111.13,🚧 SAHA DIŞI
1764462470.37,352.39,0.01,122.70,0.00,-1.88,-9.93,21.45,3,115.83,6.96,111.19,80.09,52.35,236.94,0,180.00,22.00,111.19,🚧 SAHA DIŞI
1764462470.39,352.39,0.01,122.70,0.00,-1.88,-9.93,21.45,3,116.80,4.91,111.34,80.89,72.03,235.92,0,180.00,22.00,111.34,🚧 SAHA DIŞI
1764462470.41,352.39,0.01,122.70,0.00,-1.88,-9.93,21.45,3,116.95,4.57,111.42,81.11,70.79,235.76,0,180.00,22.00,111.42,🚧 SAHA DIŞI
1764462470.43,352.39,0.01,122.70,0.00,-1.88,-9.93,21.45,3,116.53,5.39,111.48,81.89,48.04,236.19,0,180.00,22.00,111.48,🚧 SAHA DIŞI
1764462470.45,352.39,0.01,122.70,0.00,-1.88,-9.93,21.45,3,116.83,4.72,111.58,82.09,49.26,235.87,0,180.00,22.00,111.58,🚧 SAHA DIŞI
1764462470.47,352.39,0.01,122.70,0.00,-1.88,-9.93,21.45,3,116.87,4.61,111.63,82.15,47.54,235.83,0,180.00,22.00,111.63,🚧 SAHA DIŞI
1764462470.49,352.39,0.01,122.70,0.00,-1.88,-9.93,21.45,3,117.10,4.06,111.68,82.76,41.64,235.59,0,180.00,22.00,111.68,🚧 SAHA DIŞI
1764462470.51,352.39,0.01,122.70,0.00,-1.88,-9.93,21.45,3,117.41,3.32,111.75,82.96,41.75,235.27,0,180.00,22.00,111.75,🚧 SAHA DIŞI
1764462470.53,352.39,0.01,122.70,0.00,-1.88,-9.93,21.45,3,118.76,0.29,111.92,83.57,67.57,233.88,0,180.00,22.00,111.92,🚧 SAHA DIŞI
1764462470.55,352.39,0.02,122.70,0.00,-1.88,-9.93,21.45,3,118.85,0.05,111.99,83.74,67.10,233.79,0,180.00,22.00,111.99,🚧 SAHA DIŞI
1764462470.58,352.39,0.02,122.70,0.00,-1.88,-9.93,21.45,3,118.82,0.10,112.08,84.26,56.09,233.82,0,180.00,22.00,112.08,🚧 SAHA DIŞI
1764462470.60,352.39,0.02,122.70,0.00,-1.88,-9.93,21.45,3,119.01,-0.31,112.17,84.40,57.45,233.63,0,180.00,22.00,112.17,🚧 SAHA DIŞI
1764462470.62,352.40,0.02,122.70,0.00,-1.88,-9.93,21.45,3,119.04,-0.39,112.23,84.44,55.97,233.59,0,180.00,22.00,112.23,🚧 SAHA DIŞI
1764462470.64,352.40,0.02,122.70,0.00,-1.88,-9.93,21.45,3,118.55,0.67,112.28,84.84,28.35,234.08,0,180.00,22.00,112.28,🚧 SAHA DIŞI
1764462470.66,352.40,0.02,122.70,0.00,-1.88,-9.93,21.45,3,118.46,0.89,112.33,84.96,27.21,234.17,0,180.00,22.00,112.33,🚧 SAHA DIŞI
1764462470.68,352.40,0.02,122.70,0.00,-1.88,-9.93,21.45,3,119.78,-2.05,112.53,85.30,54.05,232.85,0,180.00,22.00,112.53,🚧 SAHA DIŞI
1764462470.70,352.40,0.02,122.70,0.00,-1.88,-9.93,21.45,3,119.93,-2.40,112.62,85.39,53.66,232.70,0,180.00,22.00,112.62,🚧 SAHA DIŞI
1764462470.72,352.40,0.02,122.70,0.00,-1.88,-9.93,21.45,3,119.81,-2.32,112.66,85.41,55.37,232.81,0,180.00,22.00,112.66,🚧 SAHA DIŞI
1764462470.74,352.40,0.02,122.70,0.00,-1.88,-9.93,21.45,3,121.04,-5.06,112.78,85.64,78.09,231.62,0,180.00,22.00,112.78,🚧 SAHA DIŞI
1764462470.76,352.40,0.02,122.70,0.00,-1.88,-9.93,21.45,3,121.45,-5.98,112.85,85.71,77.99,231.24,0,180.00,22.00,112.85,🚧 SAHA DIŞI
1764462470.79,352.40,0.02,122.70,0.00,-1.88,-9.93,21.45,3,119.91,-2.53,112.79,85.88,22.78,232.71,0,180.00,22.00,112.79,🚧 SAHA DIŞI
1764462470.81,352.40,0.02,122.70,0.00,-1.88,-9.93,21.45,3,120.28,-3.38,112.88,85.92,22.87,232.35,0,180.00,22.00,112.88,🚧 SAHA DIŞI
1764462470.83,352.40,0.02,122.70,0.00,-1.88,-9.93,21.45,3,120.37,-3.55,112.94,85.93,23.41,232.27,0,180.00,22.00,112.94,🚧 SAHA DIŞI
1764462470.85,352.40,0.02,122.70,0.00,-1.88,-9.93,21.45,3,121.64,-6.40,113.12,86.00,48.65,231.04,0,180.00,22.00,113.12,🚧 SAHA DIŞI
1764462470.87,352.40,0.02,122.70,0.00,-1.88,-9.93,21.45,3,121.92,-7.00,113.20,86.02,50.06,230.79,0,180.00,22.00,113.20,🚧 SAHA DIŞI
1764462470.89,352.40,0.02,122.70,0.00,-1.88,-9.93,21.45,3,121.44,-5.91,113.25,86.00,29.53,231.23,0,180.00,22.00,113.25,🚧 SAHA DIŞI
1764462470.91,352.40,0.02,122.70,0.00,-1.88,-9.93,21.45,3,121.60,-6.24,113.32,86.00,29.28,231.08,0,180.00,22.00,113.32,🚧 SAHA DIŞI
1764462470.93,352.40,0.02,122.70,0.00,-1.88,-9.93,21.45,3,122.98,-9.32,113.53,85.90,56.50,229.79,0,180.00,22.00,113.53,🚧 SAHA DIŞI
1764462470.95,352.40,0.02,122.70,0.00,-1.88,-9.93,21.45,3,123.00,-9.50,113.63,85.87,56.50,229.77,0,180.00,22.00,113.63,🚧 SAHA DIŞI
1764462470.98,352.40,0.02,122.70,0.00,-1.88,-9.93,21.45,3,123.37,-10.32,113.68,85.86,55.64,229.44,0,180.00,22.00,113.68,🚧 SAHA DIŞI
1764462471.00,352.40,0.02,122.70,0.00,-1.88,-9.93,21.45,3,124.56,-12.99,113.82,85.67,79.94,228.38,0,180.00,22.00,113.82,🚧 SAHA DIŞI
1764462471.02,352.40,0.02,122.71,0.00,-1.88,-9.93,21.45,3,124.96,-13.92,113.90,85.62,80.71,228.04,0,180.00,22.00,113.90,🚧 SAHA DIŞI
1764462471.04,352.40,0.02,122.71,0.00,-1.88,-9.93,21.45,3,124.67,-13.22,113.94,85.33,63.89,228.28,0,180.00,22.00,113.94,🚧 SAHA DIŞI
1764462471.06,352.40,0.02,122.71,0.00,-1.88,-9.93,21.45,3,124.96,-13.84,114.02,85.26,65.18,228.03,0,180.00,22.00,114.02,🚧 SAHA DIŞI
1764462471.08,352.40,0.02,122.71,0.00,-1.88,-9.93,21.45,3,125.05,-13.99,114.08,85.24,65.26,227.95,0,180.00,22.00,114.08,🚧 SAHA DIŞI
1764462471.10,352.40,0.02,122.71,0.00,-1.88,-9.93,21.45,3,124.18,-11.99,114.07,84.88,31.95,228.70,0,180.00,22.00,114.07,🚧 SAHA DIŞI
1764462471.12,352.40,0.02,122.71,0.00,-1.88,-9.93,21.45,3,124.40,-12.44,114.14,84.78,31.00,228.51,0,180.00,22.00,114.14,🚧 SAHA DIŞI
1764462471.14,352.40,0.02,122.71,0.00,-1.88,-9.93,21.45,3,126.31,-16.60,114.38,84.32,78.77,226.86,0,180.00,22.00,114.38,🚧 SAHA DIŞI
1764462471.16,352.40,0.02,122.71,0.00,-1.88,-9.93,21.45,3,126.39,-16.74,114.44,84.20,78.13,226.78,0,180.00,22.00,114.44,🚧 SAHA DIŞI
1764462471.19,352.41,0.02,122.71,0.00,-1.88,-9.93,21.45,3,125.77,-15.30,114.49,84.17,78.05,227.30,0,180.00,22.00,114.49,🚧 SAHA DIŞI
1764462471.21,352.41,0.02,122.71,0.00,-1.88,-9.93,21.45,3,124.67,-12.88,114.42,83.68,29.39,228.25,0,180.00,22.00,114.42,🚧 SAHA DIŞI
1764462471.23,352.41,0.02,122.71,0.00,-1.88,-9.93,21.45,3,125.29,-14.31,114.50,83.51,31.73,227.71,0,180.00,22.00,114.50,🚧 SAHA DIŞI
1764462471.25,352.41,0.02,122.71,0.00,-1.88,-9.93,21.45,3,127.31,-18.65,114.73,82.87,77.11,226.01,0,180.00,22.00,114.73,🚧 SAHA DIŞI
1764462471.27,352.41,0.02,122.71,0.00,-1.88,-9.93,21.45,3,127.57,-19.19,114.80,82.70,77.97,225.79,0,180.00,22.00,114.80,🚧 SAHA DIŞI
1764462471.29,352.41,0.02,122.71,0.00,-1.88,-9.93,21.45,3,127.36,-18.64,114.84,81.97,60.25,225.96,0,180.00,22.00,114.84,🚧 SAHA DIŞI
1764462471.31,352.41,0.02,122.71,0.00,-1.88,-9.93,21.45,3,127.59,-19.08,114.92,81.78,59.23,225.76,0,180.00,22.00,114.92,🚧 SAHA DIŞI
1764462471.33,352.41,0.02,122.71,0.00,-1.88,-9.93,21.45,3,127.69,-19.26,114.97,81.73,58.71,225.67,0,180.00,22.00,114.97,🚧 SAHA DIŞI
1764462471.35,352.41,0.02,122.71,0.00,-1.88,-9.93,21.45,3,127.31,-18.38,115.00,80.96,38.02,225.98,0,180.00,22.00,115.00,🚧 SAHA DIŞI
1764462471.37,352.41,0.02,122.71,0.00,-1.88,-9.93,21.45,3,127.71,-19.19,115.08,80.75,39.03,225.65,0,180.00,22.00,115.08,🚧 SAHA DIŞI
1764462471.39,352.41,0.02,122.71,0.00,-1.88,-9.93,21.45,3,127.97,-19.67,115.18,79.87,38.04,225.42,0,180.00,22.00,115.18,🚧 SAHA DIŞI
1764462471.42,352.41,0.02,122.71,0.00,-1.88,-9.93,21.45,3,127.92,-19.62,115.28,79.64,37.30,225.47,0,180.00,22.00,115.28,🚧 SAHA DIŞI
1764462471.44,352.41,0.02,122.71,0.00,-1.88,-9.93,21.45,3,128.38,-20.55,115.33,79.58,38.96,225.09,0,180.00,22.00,115.33,🚧 SAHA DIŞI
1764462471.46,352.41,0.02,122.71,0.00,-1.88,-9.93,21.45,3,128.41,-20.58,115.37,78.66,27.51,225.07,0,180.00,22.00,115.37,🚧 SAHA DIŞI
1764462471.48,352.41,0.02,122.71,0.00,-1.88,-9.93,21.45,3,128.59,-20.92,115.42,78.41,26.98,224.92,0,180.00,22.00,115.42,🚧 SAHA DIŞI
1764462471.50,352.41,0.02,122.71,0.00,-1.88,-9.93,21.45,3,130.21,-24.05,115.62,77.37,62.89,223.62,0,180.00,22.00,115.62,🚧 SAHA DIŞI
1764462471.52,352.41,0.02,122.71,0.00,-1.88,-9.93,21.45,3,130.57,-24.71,115.70,77.09,65.47,223.32,0,180.00,22.00,115.70,🚧 SAHA DIŞI
1764462471.54,352.41,0.02,122.71,0.00,-1.88,-9.93,21.45,3,130.20,-23.86,115.72,75.99,46.12,223.60,0,180.00,22.00,115.72,🚧 SAHA DIŞI
1764462471.57,352.41,0.02,122.71,0.00,-1.88,-9.93,21.45,3,130.37,-24.12,115.79,75.69,46.84,223.45,0,180.00,22.00,115.79,🚧 SAHA DIŞI
1764462471.59,352.41,0.02,122.71,0.00,-1.88,-9.93,21.45,3,130.58,-24.47,115.85,75.61,46.12,223.28,0,180.00,22.00,115.85,🚧 SAHA DIŞI
1764462471.61,352.41,0.02,122.71,0.00,-1.88,-9.93,21.45,3,131.36,-25.84,115.97,74.48,62.53,222.66,0,180.00,22.00,115.97,🚧 SAHA DIŞI
1764462471.63,352.41,0.02,122.71,0.00,-1.88,-9.93,21.45,3,131.63,-26.28,116.04,74.18,63.76,222.44,0,180.00,22.00,116.04,🚧 SAHA DIŞI
1764462471.65,352.41,0.02,122.71,0.00,-1.88,-9.93,21.45,3,131.12,-25.08,116.12,72.95,61.77,222.81,0,180.00,22.00,116.12,🚧 SAHA DIŞI
1764462471.67,352.41,0.02,122.71,0.00,-1.88,-9.93,21.45,3,131.52,-25.80,116.17,72.64,61.58,222.49,0,180.00,22.00,116.17,🚧 SAHA DIŞI
1764462471.69,352.41,0.02,122.71,0.00,-1.88,-9.93,21.45,3,132.11,-26.90,116.24,72.53,61.53,222.04,0,180.00,22.00,116.24,🚧 SAHA DIŞI
1764462471.71,352.41,0.02,122.71,0.00,-1.88,-9.93,21.45,3,132.06,-26.73,116.27,71.28,52.25,222.07,0,180.00,22.00,116.27,🚧 SAHA DIŞI
1764462471.73,352.41,0.02,122.71,0.00,-1.88,-9.93,21.45,3,132.35,-27.22,116.33,70.94,52.16,221.83,0,180.00,22.00,116.33,🚧 SAHA DIŞI
1764462471.75,352.42,0.02,122.71,0.00,-1.88,-9.93,21.45,3,133.32,-28.80,116.47,69.58,66.66,221.07,0,180.00,22.00,116.47,🚧 SAHA DIŞI
1764462471.78,352.42,0.02,122.71,0.00,-1.88,-9.93,21.45,3,133.49,-29.02,116.52,69.22,65.71,220.93,0,180.00,22.00,116.52,🚧 SAHA DIŞI
1764462471.80,352.42,0.02,122.71,0.00,-1.88,-9.93,21.45,3,133.82,-29.55,116.58,69.12,66.45,220.67,0,180.00,22.00,116.58,🚧 SAHA DIŞI
1764462471.82,352.42,0.02,122.71,0.00,-1.88,-9.93,21.45,3,133.87,-29.52,116.64,67.78,62.64,220.61,0,180.00,22.00,116.64,🚧 SAHA DIŞI
1764462471.84,352.42,0.02,122.71,0.00,-1.88,-9.93,21.45,3,134.11,-29.85,116.69,67.42,62.00,220.42,0,180.00,22.00,116.69,🚧 SAHA DIŞI
1764462471.86,352.42,0.02,122.71,0.00,-1.88,-9.93,21.45,3,134.29,-30.00,116.77,65.97,55.43,220.27,0,180.00,22.00,116.77,🚧 SAHA DIŞI
1764462471.88,352.42,0.02,122.71,0.00,-1.88,-9.93,21.45,3,134.25,-29.84,116.81,65.59,54.48,220.28,0,180.00,22.00,116.81,🚧 SAHA DIŞI
1764462471.90,352.42,0.02,122.71,0.00,-1.88,-9.93,21.45,3,134.90,-30.76,116.89,64.18,57.27,219.76,0,180.00,22.00,116.89,🚧 SAHA DIŞI
1764462471.93,352.42,0.02,122.71,0.00,-1.88,-9.93,21.45,3,135.28,-31.30,116.96,63.70,57.08,219.46,0,180.00,22.00,116.96,🚧 SAHA DIŞI
1764462471.95,352.42,0.02,122.71,0.00,-1.88,-9.93,21.45,3,135.52,-31.64,117.02,63.57,57.08,219.27,0,180.00,22.00,117.02,🚧 SAHA DIŞI
1764462471.97,352.42,0.02,122.71,0.00,-1.88,-9.93,21.45,3,135.12,-30.92,117.03,62.09,38.02,219.57,0,180.00,22.00,117.03,🚧 SAHA DIŞI
1764462471.99,352.42,0.02,122.71,0.00,-1.88,-9.93,21.45,3,135.29,-31.10,117.08,61.70,38.12,219.42,0,180.00,22.00,117.08,🚧 SAHA DIŞI
1764462472.01,352.42,0.02,122.71,0.00,-1.88,-9.93,21.45,3,135.61,-31.44,117.16,60.14,36.89,219.15,0,180.00,22.00,117.16,🚧 SAHA DIŞI
1764462472.03,352.42,0.02,122.71,0.00,-1.88,-9.93,21.45,3,135.87,-31.72,117.22,59.72,38.04,218.94,0,180.00,22.00,117.22,🚧 SAHA DIŞI
1764462472.05,352.42,0.02,122.71,0.00,-1.88,-9.93,21.45,3,135.99,-31.82,117.26,59.61,38.24,218.83,0,180.00,22.00,117.26,🚧 SAHA DIŞI
1764462472.07,352.42,0.02,122.71,0.00,-1.88,-9.93,21.45,3,137.65,-33.93,117.45,58.11,80.08,217.50,0,180.00,22.00,117.45,🚧 SAHA DIŞI
1764462472.09,352.42,0.02,122.71,0.00,-1.88,-9.93,21.45,3,137.85,-34.09,117.51,57.71,80.30,217.33,0,180.00,22.00,117.51,🚧 SAHA DIŞI
1764462472.12,352.42,0.02,122.71,0.00,-1.88,-9.93,21.45,3,138.51,-34.78,117.59,56.22,78.35,216.78,0,180.00,22.00,117.59,🚧 SAHA DIŞI
1764462472.14,352.42,0.02,122.71,0.00,-1.88,-9.93,21.45,3,138.63,-34.85,117.63,55.71,77.56,216.68,0,180.00,22.00,117.63,🚧 SAHA DIŞI
1764462472.16,352.42,0.02,122.71,0.00,-1.88,-9.93,21.45,3,138.84,-34.91,117.69,54.08,75.51,216.48,0,180.00,22.00,117.69,🚧 SAHA DIŞI
1764462472.18,352.42,0.02,122.71,0.00,-1.88,-9.93,21.45,3,139.17,-35.18,117.76,53.65,76.58,216.20,0,180.00,22.00,117.76,🚧 SAHA DIŞI
1764462472.20,352.42,0.02,122.71,0.00,-1.88,-9.93,21.45,3,139.26,-35.21,117.80,53.53,76.01,216.11,0,180.00,22.00,117.80,🚧 SAHA DIŞI
1764462472.22,352.42,0.02,122.71,0.00,-1.88,-9.93,21.45,3,139.01,-34.73,117.82,52.02,61.64,216.28,0,180.00,22.00,117.82,🚧 SAHA DIŞI
1764462472.24,352.42,0.02,122.71,0.00,-1.88,-9.93,21.45,3,139.19,-34.83,117.87,51.62,61.80,216.12,0,180.00,22.00,117.87,🚧 SAHA DIŞI
1764462472.26,352.42,0.02,122.71,0.00,-1.88,-9.93,21.45,3,138.78,-34.24,117.88,50.04,42.17,216.43,0,180.00,22.00,117.88,🚧 SAHA DIŞI
1764462472.29,352.42,0.02,122.71,0.00,-1.88,-9.93,21.45,3,138.97,-34.34,117.92,49.62,41.62,216.25,0,180.00,22.00,117.92,🚧 SAHA DIŞI
1764462472.31,352.42,0.02,122.71,0.00,-1.88,-9.93,21.45,3,139.15,-34.46,117.95,49.50,41.95,216.09,0,180.00,22.00,117.95,🚧 SAHA DIŞI
1764462472.33,352.42,0.02,122.71,0.00,-1.88,-9.93,21.45,3,140.09,-35.14,118.10,48.05,61.23,215.28,0,180.00,22.00,118.10,🚧 SAHA DIŞI
1764462472.35,352.43,0.02,122.71,0.00,-1.88,-9.93,21.45,3,140.44,-35.43,118.15,47.69,58.99,214.98,0,180.00,22.00,118.15,🚧 SAHA DIŞI
1764462472.37,352.43,0.02,122.71,0.00,-1.88,-9.93,21.45,3,140.99,-35.77,118.22,46.19,62.90,214.49,0,180.00,22.00,118.22,🚧 SAHA DIŞI
1764462472.39,352.43,0.02,122.71,0.00,-1.88,-9.93,21.45,3,141.29,-35.93,118.28,45.78,62.27,214.23,0,180.00,22.00,118.28,🚧 SAHA DIŞI
1764462472.41,352.43,0.02,122.71,0.00,-1.88,-9.93,21.45,3,141.04,-35.57,118.29,44.34,46.38,214.40,0,180.00,22.00,118.29,🚧 SAHA DIŞI
1764462472.43,352.43,0.02,122.71,0.00,-1.88,-9.93,21.45,3,141.11,-35.51,118.33,43.95,45.58,214.33,0,180.00,22.00,118.33,🚧 SAHA DIŞI
1764462472.45,352.43,0.02,122.71,0.00,-1.88,-9.93,21.45,3,141.27,-35.57,118.37,43.85,46.62,214.18,0,180.00,22.00,118.37,🚧 SAHA DIŞI
1764462472.47,352.43,0.02,122.71,0.00,-1.88,-9.93,21.45,3,142.17,-36.05,118.48,42.56,64.87,213.37,0,180.00,22.00,118.48,🚧 SAHA DIŞI
1764462472.49,352.43,0.02,122.71,0.00,-1.88,-9.93,21.45,3,142.55,-36.20,118.53,42.21,66.40,213.03,0,180.00,22.00,118.53,🚧 SAHA DIŞI
1764462472.52,352.43,0.02,122.71,0.00,-1.88,-9.93,21.45,3,142.74,-36.12,118.58,40.96,66.29,212.82,0,180.00,22.00,118.58,🚧 SAHA DIŞI
1764462472.54,352.43,0.02,122.71,0.00,-1.88,-9.93,21.45,3,143.06,-36.20,118.64,40.62,67.18,212.51,0,180.00,22.00,118.64,🚧 SAHA DIŞI
1764462472.56,352.43,0.02,122.71,0.00,-1.88,-9.93,21.45,3,143.38,-36.34,118.68,40.54,66.83,212.23,0,180.00,22.00,118.68,🚧 SAHA DIŞI
1764462472.58,352.43,0.02,122.71,0.00,-1.88,-9.93,21.45,3,91.63,-38.24,118.64,39.24,35.38,263.62,0,180.00,22.00,118.64,🚧 SAHA DIŞI
1764462472.60,352.43,0.02,122.71,0.00,-1.88,-9.93,21.45,3,40.76,-39.80,118.69,39.00,35.81,314.23,0,180.00,22.00,118.69,🚧 SAHA DIŞI
1764462472.62,352.43,0.02,122.71,0.00,-1.88,-9.93,21.45,2,33.20,-14.62,129.41,32.07,79.32,319.64,0,180.00,22.00,129.41,🚧 SAHA DIŞI
1764462472.64,352.43,0.02,122.71,0.00,-1.88,-9.93,21.45,2,33.60,-14.75,129.44,32.07,79.67,319.24,0,180.00,22.00,129.44,🚧 SAHA DIŞI
1764462472.66,352.43,0.02,122.71,0.00,-1.88,-9.93,21.45,2,33.81,-14.82,129.45,32.07,79.58,319.03,0,180.00,22.00,129.45,🚧 SAHA DIŞI
1764462472.68,352.43,0.02,122.71,0.00,-1.88,-9.93,21.45,2,34.18,-14.93,129.47,32.07,79.64,318.67,0,180.00,22.00,129.47,🚧 SAHA DIŞI
1764462472.70,352.43,0.02,122.71,0.00,-1.88,-9.93,21.45,2,34.39,-14.98,129.48,32.07,80.09,318.47,0,180.00,22.00,129.48,🚧 SAHA DIŞI
1764462472.73,352.43,0.02,122.71,0.00,-1.88,-9.93,21.45,2,33.71,-14.76,129.44,32.07,39.66,319.13,0,180.00,22.00,129.44,🚧 SAHA DIŞI
1764462472.75,352.43,0.02,122.71,0.00,-1.88,-9.93,21.45,2,34.09,-14.87,129.47,32.07,39.33,318.76,0,180.00,22.00,129.47,🚧 SAHA DIŞI
1764462472.77,352.43,0.02,122.71,0.00,-1.88,-9.93,21.45,2,34.64,-15.04,129.51,32.07,42.59,318.22,0,180.00,22.00,129.51,🚧 SAHA DIŞI
1764462472.79,352.43,0.02,122.71,0.00,-1.88,-9.93,21.45,2,35.00,-15.15,129.54,32.07,43.59,317.87,0,180.00,22.00,129.54,🚧 SAHA DIŞI
1764462472.81,352.43,0.02,122.71,0.00,-1.88,-9.93,21.45,2,35.25,-15.22,129.56,32.07,43.50,317.62,0,180.00,22.00,129.56,🚧 SAHA DIŞI
1764462472.83,352.43,0.02,122.72,0.00,-1.88,-9.93,21.45,2,35.43,-15.27,129.57,32.07,39.39,317.45,0,180.00,22.00,129.57,🚧 SAHA DIŞI
1764462472.85,352.43,0.02,122.72,0.00,-1.88,-9.93,21.45,2,35.67,-15.34,129.59,32.06,39.49,317.21,0,180.00,22.00,129.59,🚧 SAHA DIŞI
1764462472.87,352.43,0.02,122.72,0.00,-1.88,-9.93,21.45,2,37.39,-15.82,129.70,32.06,83.03,315.52,0,180.00,22.00,129.70,🚧 SAHA DIŞI
1764462472.90,352.43,0.02,122.72,0.00,-1.88,-9.93,21.45,2,37.70,-15.90,129.71,32.06,81.82,315.21,0,180.00,22.00,129.71,🚧 SAHA DIŞI
1764462472.92,352.43,0.02,122.72,0.00,-1.88,-9.93,21.45,2,37.96,-15.97,129.72,32.06,83.15,314.95,0,180.00,22.00,129.72,🚧 SAHA DIŞI
1764462472.94,352.44,0.02,122.72,0.00,-1.88,-9.93,21.45,2,36.87,-15.65,129.64,32.06,40.44,316.03,0,180.00,22.00,129.64,🚧 SAHA DIŞI
1764462472.96,352.44,0.02,122.72,0.00,-1.88,-9.93,21.45,2,37.30,-15.77,129.67,32.06,40.02,315.61,0,180.00,22.00,129.67,🚧 SAHA DIŞI
1764462472.98,352.44,0.02,122.72,0.00,-1.88,-9.93,21.45,2,38.27,-16.01,129.74,32.06,55.30,314.65,0,180.00,22.00,129.74,🚧 SAHA DIŞI
1764462473.00,352.44,0.02,122.72,0.00,-1.88,-9.93,21.45,2,38.57,-16.09,129.76,32.06,55.44,314.36,0,180.00,22.00,129.76,🚧 SAHA DIŞI
1764462473.02,352.44,0.02,122.72,0.00,-1.88,-9.93,21.45,2,39.57,-16.33,129.82,32.06,73.73,313.38,0,180.00,22.00,129.82,🚧 SAHA DIŞI
1764462473.04,352.44,0.02,122.72,0.00,-1.88,-9.93,21.45,2,39.89,-16.40,129.84,32.06,73.66,313.06,0,180.00,22.00,129.84,🚧 SAHA DIŞI
1764462473.06,352.44,0.02,122.72,0.00,-1.88,-9.93,21.45,2,40.09,-16.45,129.86,32.06,73.14,312.87,0,180.00,22.00,129.86,🚧 SAHA DIŞI
1764462473.09,352.44,0.02,122.72,0.00,-1.88,-9.93,21.45,2,39.24,-16.24,129.80,32.06,34.88,313.70,0,180.00,22.00,129.80,🚧 SAHA DIŞI
1764462473.11,352.44,0.02,122.72,0.00,-1.88,-9.93,21.45,2,39.31,-16.25,129.80,32.06,32.48,313.63,0,180.00,22.00,129.80,🚧 SAHA DIŞI
1764462473.13,352.44,0.02,122.72,0.00,-1.88,-9.93,21.45,2,39.62,-16.31,129.81,32.06,30.94,313.33,0,180.00,22.00,129.81,🚧 SAHA DIŞI
1764462473.15,352.44,0.02,122.72,0.00,-1.88,-9.93,21.45,2,39.92,-16.38,129.81,32.05,31.21,313.03,0,180.00,22.00,129.81,🚧 SAHA DIŞI
1764462473.17,352.44,0.02,122.72,0.00,-1.88,-9.93,21.45,2,40.28,-16.45,129.83,32.05,32.62,312.68,0,180.00,22.00,129.83,🚧 SAHA DIŞI
1764462473.19,352.44,0.02,122.72,0.00,-1.88,-9.93,21.45,2,41.91,-16.79,129.92,32.05,72.71,311.07,0,180.00,22.00,129.92,🚧 SAHA DIŞI
1764462473.21,352.44,0.02,122.72,0.00,-1.88,-9.93,21.45,2,42.28,-16.87,129.95,32.05,71.95,310.70,0,180.00,22.00,129.95,🚧 SAHA DIŞI
1764462473.23,352.44,0.02,122.72,0.00,-1.88,-9.93,21.45,2,42.06,-16.81,129.94,32.05,52.30,310.92,0,180.00,22.00,129.94,🚧 SAHA DIŞI
1764462473.25,352.44,0.02,122.72,0.00,-1.88,-9.93,21.45,2,42.30,-16.85,129.95,32.05,52.29,310.69,0,180.00,22.00,129.95,🚧 SAHA DIŞI
1764462473.28,352.44,0.02,122.72,0.00,-1.88,-9.93,21.45,2,42.59,-16.91,129.97,32.05,53.73,310.40,0,180.00,22.00,129.97,🚧 SAHA DIŞI
1764462473.30,352.44,0.02,122.72,0.00,-1.88,-9.93,21.45,2,42.53,-16.88,129.96,32.05,42.17,310.46,0,180.00,22.00,129.96,🚧 SAHA DIŞI
1764462473.32,352.44,0.02,122.72,0.00,-1.88,-9.93,21.45,2,42.65,-16.90,129.96,32.05,41.20,310.33,0,180.00,22.00,129.96,🚧 SAHA DIŞI
1764462473.34,352.44,0.02,122.72,0.00,-1.88,-9.93,21.45,2,44.38,-17.20,130.05,32.05,81.46,308.63,0,180.00,22.00,130.05,🚧 SAHA DIŞI
1764462473.36,352.44,0.02,122.72,0.00,-1.88,-9.93,21.45,2,44.60,-17.22,130.05,32.05,80.97,308.41,0,180.00,22.00,130.05,🚧 SAHA DIŞI
1764462473.38,352.44,0.02,122.72,0.00,-1.88,-9.93,21.45,2,44.40,-17.17,130.02,32.05,59.94,308.61,0,180.00,22.00,130.02,🚧 SAHA DIŞI
1764462473.40,352.44,0.02,122.72,0.00,-1.88,-9.93,21.45,2,44.58,-17.19,130.02,32.04,59.24,308.43,0,180.00,22.00,130.02,🚧 SAHA DIŞI
1764462473.42,352.44,0.02,122.72,0.00,-1.88,-9.93,21.45,2,44.70,-17.21,130.02,32.04,59.17,308.31,0,180.00,22.00,130.02,🚧 SAHA DIŞI
1764462473.44,352.44,0.02,122.72,0.00,-1.88,-9.93,21.45,2,44.25,-17.13,130.00,32.04,31.69,308.76,0,180.00,22.00,130.00,🚧 SAHA DIŞI
1764462473.47,352.44,0.02,122.72,0.00,-1.88,-9.93,21.45,2,44.62,-17.18,130.02,32.04,31.64,308.39,0,180.00,22.00,130.02,🚧 SAHA DIŞI
1764462473.49,352.44,0.02,122.72,0.00,-1.88,-9.93,21.45,2,46.01,-17.35,130.10,32.04,59.73,307.01,0,180.00,22.00,130.10,🚧 SAHA DIŞI
1764462473.51,352.44,0.02,122.72,0.00,-1.88,-9.93,21.45,2,46.25,-17.38,130.11,32.04,58.63,306.78,0,180.00,22.00,130.11,🚧 SAHA DIŞI
1764462473.53,352.45,0.02,122.72,0.00,-1.88,-9.93,21.45,2,46.38,-17.39,130.11,32.04,59.47,306.65,0,180.00,22.00,130.11,🚧 SAHA DIŞI
1764462473.55,352.45,0.02,122.72,0.00,-1.88,-9.93,21.45,2,47.07,-17.45,130.14,32.04,73.83,305.96,0,180.00,22.00,130.14,🚧 SAHA DIŞI
1764462473.57,352.45,0.02,122.72,0.00,-1.88,-9.93,21.45,2,47.33,-17.47,130.14,32.04,73.09,305.71,0,180.00,22.00,130.14,🚧 SAHA DIŞI
1764462473.59,352.45,0.02,122.72,0.00,-1.88,-9.93,21.45,2,46.24,-17.34,130.07,32.04,29.97,306.79,0,180.00,22.00,130.07,🚧 SAHA DIŞI
1764462473.61,352.45,0.02,122.72,0.00,-1.88,-9.93,21.45,2,46.60,-17.37,130.08,32.04,30.01,306.43,0,180.00,22.00,130.08,🚧 SAHA DIŞI
1764462473.63,352.45,0.02,122.72,0.00,-1.88,-9.93,21.45,2,48.31,-17.51,130.15,32.04,73.50,304.73,0,180.00,22.00,130.15,🚧 SAHA DIŞI
1764462473.65,352.45,0.02,122.72,0.00,-1.88,-9.93,21.45,2,48.56,-17.51,130.15,32.04,73.82,304.48,0,180.00,22.00,130.15,🚧 SAHA DIŞI
1764462473.68,352.45,0.03,122.72,0.00,-1.88,-9.93,21.45,2,48.98,-17.55,130.17,32.04,73.26,304.07,0,180.00,22.00,130.17,🚧 SAHA DIŞI
1764462473.70,352.45,0.03,122.72,0.00,-1.88,-9.93,21.45,2,48.90,-17.52,130.17,32.04,60.75,304.14,0,180.00,22.00,130.17,🚧 SAHA DIŞI
1764462473.72,352.45,0.03,122.72,0.00,-1.88,-9.93,21.45,2,49.31,-17.54,130.19,32.04,62.30,303.74,0,180.00,22.00,130.19,🚧 SAHA DIŞI
1764462473.74,352.45,0.03,122.72,0.00,-1.88,-9.93,21.45,2,48.40,-17.47,130.13,32.04,24.67,304.64,0,180.00,22.00,130.13,🚧 SAHA DIŞI
1764462473.76,352.45,0.03,122.72,0.00,-1.88,-9.93,21.45,2,48.65,-17.48,130.14,32.04,26.30,304.39,0,180.00,22.00,130.14,🚧 SAHA DIŞI
1764462473.78,352.45,0.03,122.72,0.00,-1.88,-9.93,21.45,2,48.75,-17.48,130.14,32.04,24.20,304.30,0,180.00,22.00,130.14,🚧 SAHA DIŞI
1764462473.80,352.45,0.03,122.72,0.00,-1.88,-9.93,21.45,2,50.66,-17.54,130.21,32.04,78.14,302.40,0,180.00,22.00,130.21,🚧 SAHA DIŞI
