time,my_x,my_y,my_z,my_speed,my_roll,my_pitch,my_yaw,target_id,target_x,target_y,target_z,target_speed,target_gecikme_ms,target_dist,kilitlenme,cmd_yaw,cmd_speed,cmd_alt,mode_log
1764459024.19,119.99,-0.00,50.01,0.00,0.00,0.00,0.00,3,76.48,14.37,100.96,82.94,56.79,68.53,0,161.72,65.00,100.96, TAKIP |  DIREKT
1764459024.21,119.99,0.00,50.01,0.00,0.00,0.00,0.00,3,76.53,14.19,100.96,82.94,58.25,68.45,0,161.91,65.00,100.96, TAKIP |  DIREKT
1764459024.23,119.99,0.00,50.01,0.00,0.00,0.00,0.00,3,77.11,15.48,100.96,82.94,58.33,68.37,0,160.14,65.00,100.96, TAKIP |  DIREKT
1764459024.25,119.99,0.00,50.01,0.00,0.00,0.00,0.00,3,78.02,17.49,100.97,82.30,68.45,68.29,0,157.38,65.00,100.97, TAKIP |  DIREKT
1764459024.27,119.99,0.00,50.02,0.00,-0.00,0.00,0.00,3,78.42,18.43,100.98,82.13,68.19,68.30,0,156.09,65.00,100.98, TAKIP |  DIREKT
1764459024.29,119.99,0.00,50.02,0.00,-0.00,0.00,0.00,3,77.94,17.40,101.01,81.37,41.49,68.34,0,157.52,65.00,101.01, TAKIP |  DIREKT
1764459024.31,119.99,0.00,50.02,0.00,-0.00,0.00,0.00,3,78.28,18.13,101.04,81.16,41.47,68.34,0,156.50,65.00,101.04, TAKIP |  DIREKT
1764459024.33,119.99,0.00,50.02,0.00,-0.00,0.00,0.00,3,78.47,18.48,101.08,80.32,35.27,68.36,0,156.00,65.00,101.08, TAKIP |  DIREKT
1764459024.35,119.99,0.00,50.02,0.00,-0.00,0.00,360.00,3,78.75,19.04,101.12,80.09,35.25,68.37,0,155.21,65.00,101.12, TAKIP |  DIREKT
1764459024.38,119.99,0.00,50.03,0.00,-0.00,0.00,360.00,3,78.95,19.46,101.15,80.03,35.40,68.38,0,154.63,65.00,101.15, TAKIP |  DIREKT
1764459024.40,119.99,0.00,50.03,0.00,-0.00,0.00,360.00,3,79.33,20.18,101.20,79.16,36.85,68.40,0,153.61,65.00,101.20, TAKIP |  DIREKT
1764459024.42,119.99,0.00,50.03,0.00,-0.00,0.00,360.00,3,79.57,20.62,101.24,78.92,36.88,68.43,0,152.97,65.00,101.24, TAKIP |  DIREKT
1764459024.44,119.99,0.00,50.03,0.00,-0.00,0.00,360.00,3,80.85,23.19,101.26,78.00,58.86,68.51,0,149.35,65.00,101.26, TAKIP |  DIREKT
1764459024.46,119.99,0.00,50.04,0.00,-0.00,0.00,360.00,3,81.18,23.85,101.29,77.68,58.72,68.57,0,148.43,65.00,101.29, TAKIP |  DIREKT
1764459024.48,119.99,0.00,50.04,0.00,-0.00,0.00,360.00,3,81.38,24.26,101.31,77.59,58.74,68.62,0,147.85,65.00,101.31, TAKIP |  DIREKT
1764459024.50,119.99,0.00,50.04,0.00,-0.00,0.00,360.00,3,82.04,25.47,101.36,76.57,70.21,68.72,0,146.13,65.00,101.36, TAKIP |  DIREKT
1764459024.52,119.99,0.00,50.04,0.00,-0.00,0.00,360.00,3,82.21,25.73,101.40,76.29,70.20,68.75,0,145.74,65.00,101.40, TAKIP |  DIREKT
1764459024.55,119.99,0.00,50.05,0.00,-0.00,0.00,360.00,3,81.22,23.70,101.46,75.15,33.64,68.61,0,148.56,65.00,101.46, TAKIP |  DIREKT
1764459024.57,119.99,0.00,50.05,0.00,-0.00,0.00,360.00,3,81.42,24.01,101.51,74.84,33.55,68.65,0,148.09,65.00,101.51, TAKIP |  DIREKT
1764459024.59,119.99,0.00,50.05,0.00,-0.00,0.00,360.00,3,81.74,24.52,101.58,73.63,33.98,68.70,0,147.34,65.00,101.58, TAKIP |  DIREKT
1764459024.61,119.99,0.00,50.05,0.00,-0.00,0.00,0.00,3,81.97,24.89,101.64,73.30,34.10,68.74,0,146.79,65.00,101.64, TAKIP |  DIREKT
1764459024.63,119.99,0.00,50.06,0.00,-0.00,0.00,0.00,3,82.12,25.12,101.68,73.21,34.03,68.78,0,146.44,65.00,101.68, TAKIP |  DIREKT
1764459024.65,119.99,0.00,50.06,0.00,-0.00,0.00,0.00,3,82.22,25.28,101.70,72.08,22.80,68.79,0,146.20,65.00,101.70, TAKIP |  DIREKT
1764459024.67,119.99,0.00,50.06,0.00,-0.00,0.00,0.00,3,82.54,25.85,101.73,71.70,22.77,68.85,0,145.38,65.00,101.73, TAKIP |  DIREKT
1764459024.69,119.99,0.00,50.07,0.00,-0.00,0.00,0.00,3,84.32,28.92,101.79,70.35,64.90,69.17,0,140.97,65.00,101.79, TAKIP |  DIREKT
1764459024.71,119.99,0.00,50.07,0.00,-0.00,0.00,0.00,3,84.53,29.21,101.84,69.98,64.93,69.21,0,140.52,65.00,101.84, TAKIP |  DIREKT
1764459024.73,119.99,0.00,50.07,0.00,-0.00,0.00,0.00,3,84.67,29.38,101.88,69.89,64.86,69.25,0,140.24,65.00,101.88, TAKIP |  DIREKT
1764459024.76,119.99,0.00,50.07,0.00,-0.00,0.00,0.00,3,84.70,29.31,101.94,68.58,58.97,69.24,0,140.29,65.00,101.94, TAKIP |  DIREKT
1764459024.78,119.99,0.00,50.08,0.00,-0.00,0.00,0.00,3,84.87,29.51,102.00,68.23,59.01,69.28,0,139.96,65.00,102.00, TAKIP |  DIREKT
1764459024.80,119.99,0.00,50.08,0.00,-0.00,0.00,0.00,3,85.72,30.75,102.08,66.81,75.02,69.46,0,138.10,65.00,102.08, TAKIP |  DIREKT
1764459024.82,119.99,0.00,50.08,0.00,-0.00,0.00,0.00,3,85.94,31.01,102.15,66.43,75.01,69.51,0,137.68,65.00,102.15, TAKIP |  DIREKT
1764459024.84,119.99,0.00,50.09,0.00,-0.00,0.00,0.00,3,85.84,30.69,102.23,64.94,63.41,69.48,0,138.06,64.70,102.23, TAKIP |  DIREKT
1764459024.86,119.99,0.00,50.09,0.00,-0.00,0.00,0.00,3,86.08,30.97,102.31,64.54,63.29,69.54,0,137.59,64.30,102.31, TAKIP |  DIREKT
1764459024.88,119.99,0.00,50.09,0.00,-0.00,0.00,0.00,3,86.19,31.12,102.35,64.44,63.31,69.58,0,137.36,64.20,102.35, TAKIP |  DIREKT
1764459024.90,119.99,0.00,50.10,0.00,-0.00,0.00,0.00,3,86.19,31.01,102.37,63.08,48.40,69.54,0,137.46,62.84,102.37, TAKIP |  DIREKT
1764459024.92,119.99,0.00,50.10,0.00,-0.00,0.00,0.00,3,86.52,31.46,102.40,62.62,48.43,69.61,0,136.77,62.38,102.40, TAKIP |  DIREKT
1764459024.95,119.99,0.00,50.10,0.00,-0.00,0.00,0.00,3,87.68,33.01,102.47,61.04,72.00,69.83,0,134.39,60.81,102.47, TAKIP |  DIREKT
1764459024.97,119.99,0.00,50.11,0.00,-0.00,0.00,0.00,3,87.87,33.20,102.52,60.62,71.94,69.86,0,134.05,60.39,102.52, TAKIP |  DIREKT
1764459024.99,119.99,0.00,50.11,0.00,-0.00,0.00,0.00,3,88.01,33.32,102.56,60.50,71.94,69.89,0,133.82,60.28,102.56, TAKIP |  DIREKT
1764459025.01,119.99,-0.00,50.11,0.00,-0.00,0.00,0.00,3,88.03,33.17,102.63,59.02,65.38,69.86,0,133.93,58.79,102.63, TAKIP |  DIREKT
1764459025.03,119.99,-0.00,50.12,0.00,-0.00,-0.00,360.00,3,88.21,33.32,102.69,58.62,65.39,69.89,0,133.64,58.39,102.69, TAKIP |  DIREKT
1764459025.05,119.99,-0.00,50.12,0.00,-0.00,-0.00,360.00,3,87.14,31.77,102.75,57.02,26.63,69.70,0,135.95,56.78,102.75, TAKIP |  DIREKT
1764459025.07,119.99,-0.00,50.13,0.00,-0.00,-0.00,360.00,3,87.35,31.98,102.82,56.59,26.67,69.74,0,135.58,56.36,102.82, TAKIP |  DIREKT
1764459025.09,119.99,-0.00,50.13,0.00,-0.00,-0.00,360.00,3,87.51,32.11,102.87,56.48,26.57,69.77,0,135.33,56.24,102.87, TAKIP |  DIREKT
1764459025.11,119.99,-0.00,50.13,0.00,-0.00,-0.00,360.00,3,89.33,34.25,102.97,54.96,71.07,70.04,0,131.83,54.74,102.97, TAKIP |  DIREKT
1764459025.13,119.99,-0.00,50.14,0.00,-0.00,-0.00,360.00,3,89.26,34.04,103.02,54.55,71.16,69.99,0,132.08,54.33,103.02, TAKIP |  DIREKT
1764459025.16,119.99,-0.00,50.14,0.00,-0.00,-0.00,360.00,3,89.87,34.59,103.05,53.06,72.66,70.02,0,131.04,52.83,103.05, TAKIP |  DIREKT
1764459025.18,119.99,-0.00,50.15,0.00,-0.00,-0.00,360.00,3,90.26,34.97,103.09,52.54,72.64,70.07,0,130.37,52.33,103.09, TAKIP |  DIREKT
1764459025.20,119.99,-0.00,50.15,0.00,-0.00,-0.00,360.00,3,88.89,33.34,103.12,50.93,21.93,69.89,0,133.01,50.70,103.12, TAKIP |  DIREKT
1764459025.22,119.99,-0.00,50.16,0.00,-0.00,-0.00,360.00,3,89.12,33.52,103.19,50.49,21.82,69.92,0,132.64,50.27,103.19, TAKIP |  DIREKT
1764459025.24,119.99,-0.00,50.16,0.00,-0.00,-0.00,360.00,3,89.29,33.63,103.24,50.38,21.82,69.94,0,132.39,50.15,103.24, TAKIP |  DIREKT
1764459025.26,119.99,-0.00,50.17,0.00,-0.00,-0.00,360.00,3,91.13,35.36,103.36,48.88,66.50,70.09,0,129.22,48.66,103.36, TAKIP |  DIREKT
1764459025.28,119.99,-0.00,50.17,0.00,-0.00,-0.00,360.00,3,91.30,35.42,103.43,48.48,66.36,70.10,0,129.00,48.26,103.43, TAKIP |  DIREKT
1764459025.30,119.99,-0.00,50.18,0.00,-0.00,-0.00,360.00,3,91.93,35.81,103.54,46.95,75.94,70.12,0,128.07,46.74,103.54, TAKIP |  DIREKT
1764459025.32,119.99,-0.00,50.18,0.00,-0.00,-0.00,360.00,3,92.17,35.91,103.62,46.54,76.00,70.13,0,127.76,46.33,103.62, TAKIP |  DIREKT
1764459025.34,119.99,-0.00,50.19,0.00,-0.00,-0.00,360.00,3,92.33,35.98,103.68,46.43,75.96,70.15,0,127.54,46.22,103.68, TAKIP |  DIREKT
1764459025.37,119.99,0.00,50.19,0.00,-0.00,-0.00,360.00,3,92.40,35.76,103.78,45.04,69.75,70.08,0,127.64,44.82,103.78, TAKIP |  DIREKT
1764459025.39,119.99,0.00,50.20,0.00,-0.00,-0.00,360.00,3,92.88,36.11,103.81,44.69,69.80,70.09,0,126.90,44.47,103.81, TAKIP |  DIREKT
1764459025.41,119.99,0.00,50.20,0.00,-0.00,-0.00,360.00,3,92.97,36.01,103.85,43.28,61.07,70.03,0,126.88,43.06,103.85, TAKIP |  DIREKT
1764459025.43,119.99,0.00,50.21,0.00,-0.00,-0.00,360.00,3,93.22,36.10,103.91,42.89,61.13,70.02,0,126.55,42.67,103.91, TAKIP |  DIREKT
1764459025.45,119.99,0.00,50.22,0.00,-0.00,-0.00,360.00,3,93.37,36.15,103.96,42.79,61.09,70.02,0,126.36,42.57,103.96, TAKIP |  DIREKT
1764459025.47,119.99,0.00,50.22,0.00,-0.00,-0.00,360.00,3,94.26,36.55,104.05,41.56,80.44,69.97,0,125.14,41.34,104.05, TAKIP |  DIREKT
1764459025.49,119.99,0.00,50.23,0.00,-0.00,-0.00,360.00,3,94.43,36.55,104.12,41.23,80.53,69.95,0,124.96,41.01,104.12, TAKIP |  DIREKT
1764459025.51,119.99,0.00,50.23,0.00,-0.00,-0.00,360.00,3,93.68,35.90,104.18,40.04,51.20,69.93,0,126.24,39.81,104.18, TAKIP |  DIREKT
1764459025.53,119.99,0.00,50.24,0.00,-0.00,-0.00,360.00,3,93.88,35.90,104.26,39.72,51.20,69.92,0,126.02,39.49,104.26, TAKIP |  DIREKT
1764459025.55,119.99,0.00,50.25,0.00,-0.00,-0.00,360.00,3,93.36,35.49,104.34,38.67,27.67,69.96,0,126.88,38.44,104.34, TAKIP |  DIREKT
1764459025.57,119.99,0.00,50.25,0.00,-0.00,-0.00,360.00,3,93.57,35.50,104.41,38.38,27.38,69.94,0,126.66,38.16,104.41, TAKIP |  DIREKT
1764459025.60,119.99,0.00,50.26,0.00,-0.00,-0.00,360.00,3,93.68,35.48,104.47,38.31,27.36,69.93,0,126.55,38.08,104.47, TAKIP |  DIREKT
1764459025.62,119.99,0.00,50.27,0.00,-0.00,-0.00,360.00,3,95.16,35.97,104.55,37.52,54.69,69.69,0,124.61,37.28,104.55, TAKIP |  DIREKT
1764459025.64,119.99,0.00,50.27,0.00,-0.00,-0.00,360.00,3,95.51,36.03,104.60,37.24,54.58,69.63,0,124.19,37.01,104.60, TAKIP |  DIREKT
1764459025.66,119.99,0.00,50.28,0.00,-0.00,-0.00,360.00,3,94.91,35.69,104.64,36.50,27.92,69.69,0,125.09,36.26,104.64, TAKIP |  DIREKT
1764459025.68,119.99,0.00,50.29,0.00,-0.00,-0.00,360.00,3,95.12,35.66,104.71,36.30,27.90,69.65,0,124.89,36.06,104.71, TAKIP |  DIREKT
1764459025.70,119.99,0.00,50.29,0.00,-0.00,-0.00,360.00,3,95.25,35.63,104.77,36.24,27.92,69.63,0,124.77,36.00,104.77, TAKIP |  DIREKT
1764459025.72,119.99,0.00,50.30,0.00,-0.00,-0.00,360.00,3,95.96,35.67,104.87,35.74,41.21,69.48,0,123.96,35.49,104.87, TAKIP |  DIREKT
1764459025.74,119.99,0.00,50.31,0.00,-0.00,-0.00,360.00,3,96.13,35.60,104.95,35.60,41.21,69.44,0,123.83,35.35,104.95, TAKIP |  DIREKT
1764459025.76,119.99,0.00,50.32,0.00,-0.00,-0.00,360.00,3,97.61,35.64,105.10,35.27,75.24,69.08,0,122.13,35.01,105.10, TAKIP |  DIREKT
1764459025.78,119.99,0.00,50.33,0.00,-0.00,-0.00,360.00,3,97.82,35.53,105.18,35.18,75.33,69.02,0,121.96,34.92,105.18, TAKIP |  DIREKT
1764459025.81,119.99,0.00,50.33,0.00,-0.00,-0.00,360.00,3,97.97,35.47,105.25,35.16,75.28,68.98,0,121.83,34.89,105.25, TAKIP |  DIREKT
1764459025.83,119.99,0.00,50.34,0.00,-0.00,-0.00,360.00,3,98.08,35.27,105.30,35.06,70.66,68.88,0,121.85,34.79,105.30, TAKIP |  DIREKT
1764459025.85,119.99,0.00,50.35,0.00,-0.00,-0.00,360.00,3,98.20,35.11,105.39,35.04,70.76,68.83,0,121.82,34.76,105.39, TAKIP |  DIREKT
1764459025.87,119.99,0.00,50.36,0.00,0.00,-0.00,360.00,3,98.51,34.93,105.43,35.13,64.71,68.66,0,121.59,34.85,105.43, TAKIP |  DIREKT
1764459025.89,119.99,0.00,50.37,0.00,0.00,-0.00,360.00,3,98.88,34.82,105.48,35.17,64.70,68.53,0,121.23,34.88,105.48, TAKIP |  DIREKT
1764459025.91,119.99,0.00,50.38,0.00,0.00,-0.00,360.00,3,98.67,34.66,105.54,35.49,48.91,68.55,0,121.59,35.20,105.54, TAKIP |  DIREKT
1764459025.93,119.99,0.00,50.38,0.00,0.00,-0.00,360.00,3,98.90,34.52,105.62,35.58,48.79,68.47,0,121.42,35.29,105.62, TAKIP |  DIREKT
1764459025.95,119.99,0.00,50.39,0.00,0.00,-0.00,360.00,3,99.05,34.42,105.69,35.60,48.82,68.41,0,121.31,35.31,105.69, TAKIP |  DIREKT
1764459025.97,119.99,0.00,50.40,0.00,0.00,-0.00,360.00,3,99.76,34.10,105.80,36.12,61.64,68.13,0,120.68,35.81,105.80, TAKIP |  DIREKT
1764459025.99,119.99,0.00,50.41,0.00,0.00,-0.00,360.00,3,99.93,33.95,105.88,36.25,61.52,68.06,0,120.58,35.95,105.88, TAKIP |  DIREKT
1764459026.01,119.99,0.00,50.42,0.00,0.00,-0.00,360.00,3,99.86,33.78,105.98,36.98,50.97,68.06,0,120.78,36.67,105.98, TAKIP |  DIREKT
1764459026.04,119.99,0.00,50.43,0.00,0.00,-0.00,360.00,3,100.07,33.60,106.07,37.18,50.96,67.98,0,120.66,36.87,106.07, TAKIP |  DIREKT
1764459026.06,119.99,0.00,50.44,0.00,0.00,-0.00,360.00,3,100.22,33.48,106.14,37.23,51.10,67.92,0,120.56,36.92,106.14, TAKIP |  DIREKT
1764459026.08,119.99,0.00,50.45,0.00,0.00,-0.00,360.00,3,99.74,33.52,106.13,38.09,29.14,68.07,0,121.13,37.78,106.13, TAKIP |  DIREKT
1764459026.10,119.99,0.00,50.46,0.00,0.00,-0.00,360.00,3,100.20,33.28,106.18,38.30,29.19,67.84,0,120.74,37.99,106.18, TAKIP |  DIREKT
1764459026.12,119.99,0.00,50.47,0.00,0.00,-0.00,360.00,3,100.33,33.11,106.24,39.36,21.44,67.77,0,120.69,39.04,106.24, TAKIP |  DIREKT
1764459026.14,119.99,0.00,50.48,0.00,0.00,-0.00,360.00,3,100.59,32.90,106.31,39.65,21.47,67.65,0,120.52,39.33,106.31, TAKIP |  DIREKT
1764459026.16,119.99,0.00,50.50,0.00,0.00,-0.00,360.00,3,100.72,32.76,106.38,39.73,21.45,67.58,0,120.45,39.40,106.38, TAKIP |  DIREKT
1764459026.18,119.99,0.00,50.51,0.00,0.00,-0.00,360.00,3,101.05,32.48,106.48,40.86,23.78,67.43,0,120.25,40.52,106.48, TAKIP |  DIREKT
1764459026.20,119.99,0.00,50.52,0.00,0.00,-0.00,360.00,3,101.20,32.30,106.56,41.16,23.78,67.36,0,120.18,40.82,106.56, TAKIP |  DIREKT
1764459026.22,119.99,0.00,50.53,0.00,0.00,-0.00,360.00,3,102.61,31.25,106.72,42.47,56.44,66.60,0,119.08,42.10,106.72, TAKIP |  DIREKT
1764459026.25,119.99,0.00,50.54,0.00,0.00,-0.00,360.00,3,102.81,31.00,106.82,42.82,56.47,66.50,0,119.00,42.44,106.82, TAKIP |  DIREKT
1764459026.27,119.99,0.00,50.55,0.00,0.00,-0.00,360.00,3,102.87,30.77,106.93,44.22,49.34,66.47,0,119.08,43.84,106.93, TAKIP |  DIREKT
1764459026.29,119.99,0.00,50.56,0.00,0.00,-0.00,360.00,3,103.10,30.49,107.03,44.59,49.33,66.36,0,118.98,44.21,107.03, TAKIP |  DIREKT
1764459026.31,119.99,0.00,50.58,0.00,0.00,-0.00,360.00,3,103.26,30.29,107.11,44.70,49.36,66.28,0,118.92,44.31,107.11, TAKIP |  DIREKT
1764459026.33,119.99,0.00,50.59,0.00,0.00,-0.00,360.00,3,103.58,29.89,107.15,46.00,44.67,66.05,0,118.76,45.61,107.15, TAKIP |  DIREKT
1764459026.35,119.99,0.00,50.60,0.00,0.00,-0.00,360.00,3,103.92,29.53,107.21,46.45,44.61,65.84,0,118.55,46.04,107.21, TAKIP |  DIREKT
1764459026.37,119.99,0.00,50.62,0.00,0.00,-0.00,360.00,3,103.93,29.38,107.28,47.99,35.57,65.82,0,118.66,47.58,107.28, TAKIP |  DIREKT
1764459026.39,119.99,0.00,50.63,0.00,0.00,-0.00,360.00,3,104.13,29.10,107.36,48.41,35.50,65.70,0,118.59,47.99,107.36, TAKIP |  DIREKT
1764459026.41,119.99,0.00,50.64,0.00,0.00,-0.00,360.00,3,104.25,28.91,107.43,48.52,35.45,65.64,0,118.56,48.10,107.43, TAKIP |  DIREKT
1764459026.44,119.99,0.00,50.66,0.00,0.00,-0.00,360.00,3,104.55,28.50,107.53,50.01,37.00,65.46,0,118.44,49.58,107.53, TAKIP |  DIREKT
1764459026.46,119.99,0.00,50.67,0.00,0.00,-0.00,360.00,3,104.72,28.25,107.61,50.41,36.91,65.37,0,118.40,49.98,107.61, TAKIP |  DIREKT
1764459026.48,119.99,0.00,50.68,0.00,0.00,-0.00,360.00,3,105.44,27.33,107.75,52.00,49.39,64.92,0,118.02,51.55,107.75, TAKIP |  DIREKT
1764459026.50,119.99,0.00,50.70,0.00,0.00,-0.00,360.00,3,105.65,27.00,107.84,52.43,49.62,64.81,0,117.96,51.98,107.84, TAKIP |  DIREKT
1764459026.52,119.99,0.00,50.71,0.00,0.00,-0.00,360.00,3,105.80,26.77,107.91,52.55,49.42,64.73,0,117.92,52.09,107.91, TAKIP |  DIREKT
1764459026.54,119.99,0.00,50.73,0.00,0.00,-0.00,360.00,3,105.28,27.24,107.94,54.06,26.68,65.05,0,118.37,53.62,107.94, TAKIP |  DIREKT
1764459026.56,119.99,0.00,50.74,0.00,0.00,-0.00,360.00,3,105.73,26.65,107.99,54.44,26.73,64.73,0,118.14,53.98,107.99, TAKIP |  DIREKT
1764459026.58,119.99,0.00,50.76,0.00,0.00,-0.00,0.00,3,106.29,25.87,108.07,56.05,31.35,64.36,0,117.90,55.58,108.07, TAKIP |  DIREKT
1764459026.60,119.99,0.00,50.77,0.00,0.00,-0.00,0.00,3,106.53,25.49,108.15,56.50,31.32,64.21,0,117.83,56.02,108.15, TAKIP |  DIREKT
1764459026.62,119.99,0.00,50.79,0.00,0.00,-0.00,0.00,3,107.37,24.27,108.28,58.10,47.28,63.67,0,117.46,57.60,108.28, TAKIP |  DIREKT
1764459026.65,119.99,0.00,50.80,0.00,0.00,-0.00,0.00,3,107.56,23.92,108.37,58.54,47.19,63.57,0,117.45,58.03,108.37, TAKIP |  DIREKT
1764459026.67,119.99,0.00,50.82,0.00,0.00,-0.00,0.00,3,107.70,23.67,108.45,58.65,47.24,63.50,0,117.43,58.14,108.45, TAKIP |  DIREKT
1764459026.69,119.99,0.00,50.84,0.00,0.00,-0.00,0.00,3,108.88,21.92,108.61,60.14,73.63,62.78,0,116.88,59.60,108.61, TAKIP |  DIREKT
1764459026.71,119.99,0.00,50.85,0.00,0.00,-0.00,0.00,3,109.06,21.57,108.70,60.54,73.63,62.69,0,116.87,59.99,108.70, TAKIP |  DIREKT
1764459026.73,119.99,0.00,50.87,0.00,0.00,-0.00,0.00,3,108.15,22.73,108.76,62.08,39.09,63.31,0,117.51,61.56,108.76, TAKIP |  DIREKT
1764459026.75,119.99,0.00,50.89,0.00,0.00,-0.00,0.00,3,108.36,22.35,108.85,62.49,39.06,63.20,0,117.49,61.97,108.85, TAKIP |  DIREKT
1764459026.77,119.99,0.00,50.90,0.00,0.00,-0.00,0.00,3,108.51,22.07,108.91,62.60,39.05,63.12,0,117.47,62.08,108.91, TAKIP |  DIREKT
1764459026.79,119.99,0.00,50.92,0.00,0.00,0.00,0.00,3,108.72,21.67,108.96,63.96,30.83,62.97,0,117.48,63.42,108.96, TAKIP |  DIREKT
1764459026.81,119.99,0.00,50.94,0.00,0.00,0.00,0.00,3,109.03,21.11,109.02,64.41,30.86,62.76,0,117.43,63.87,109.02, TAKIP |  DIREKT
1764459026.84,119.99,0.00,50.96,0.00,0.00,0.00,0.00,3,109.98,19.50,109.15,65.92,48.81,62.18,0,117.16,65.00,109.15, TAKIP |  DIREKT
1764459026.86,119.99,0.00,50.97,0.00,0.00,0.00,0.00,3,110.18,19.10,109.23,66.33,49.06,62.08,0,117.18,65.00,109.23, TAKIP |  DIREKT
1764459026.88,119.99,0.00,50.99,0.00,0.00,0.00,0.00,3,110.30,18.85,109.30,66.43,48.89,62.04,0,117.20,65.00,109.30, TAKIP |  DIREKT
1764459026.90,119.99,0.00,51.01,0.00,0.00,0.00,0.00,3,110.75,18.01,109.41,67.80,54.59,61.81,0,117.15,65.00,109.41, TAKIP |  DIREKT
1764459026.92,119.99,0.00,51.03,0.00,0.00,0.00,0.00,3,110.92,17.67,109.49,68.17,54.60,61.75,0,117.18,65.00,109.49, TAKIP |  DIREKT
1764459026.94,119.99,0.00,51.05,0.00,0.00,0.00,0.00,3,110.07,19.02,109.54,69.57,22.27,62.30,0,117.55,65.00,109.54, TAKIP |  DIREKT
1764459026.96,119.99,0.00,51.07,0.00,0.00,0.00,0.00,3,110.27,18.61,109.63,69.94,22.28,62.22,0,117.57,65.00,109.63, TAKIP |  DIREKT
1764459026.98,119.99,0.00,51.09,0.00,0.00,0.00,0.00,3,110.93,17.37,109.79,71.29,32.10,61.89,0,117.53,65.00,109.79, TAKIP |  DIREKT
1764459027.00,119.99,0.00,51.11,0.00,0.00,0.00,0.00,3,111.09,16.99,109.86,71.65,33.01,61.80,0,117.65,65.00,109.86, TAKIP |  DIREKT
1764459027.02,119.99,0.00,51.12,0.00,0.00,0.00,0.00,3,111.49,16.22,109.91,71.74,32.28,61.57,0,117.64,65.00,109.91, TAKIP |  DIREKT
1764459027.04,119.99,0.00,51.14,0.00,0.00,0.00,0.00,3,112.80,13.75,110.04,72.95,59.15,60.91,0,117.61,65.00,110.04, TAKIP |  DIREKT
1764459027.06,119.99,0.00,51.16,0.00,0.00,0.00,0.00,3,113.03,13.25,110.11,73.28,59.23,60.82,0,117.71,65.00,110.11, TAKIP |  DIREKT
1764459027.09,119.99,0.00,51.19,0.00,0.00,0.00,0.00,3,113.68,11.93,110.24,74.49,69.09,60.57,0,117.86,65.00,110.24, TAKIP |  DIREKT
1764459027.11,119.99,0.00,51.21,0.00,0.00,0.00,0.00,3,113.87,11.51,110.32,74.81,68.99,60.54,0,117.98,65.00,110.32, TAKIP |  DIREKT
1764459027.13,119.99,0.00,51.23,0.00,0.00,0.00,0.00,3,114.01,11.21,110.40,74.90,68.99,60.52,0,118.05,65.00,110.40, TAKIP |  DIREKT
1764459027.15,119.99,0.00,51.25,0.00,0.00,0.00,0.00,3,113.26,12.58,110.43,75.99,39.80,60.88,0,118.13,65.00,110.43, TAKIP |  DIREKT
1764459027.17,119.99,0.00,51.27,0.00,0.00,0.00,0.00,3,113.45,12.18,110.52,76.28,39.79,60.84,0,118.23,65.00,110.52, TAKIP |  DIREKT
1764459027.19,119.99,0.00,51.29,0.00,0.00,0.00,0.00,3,113.23,12.56,110.60,77.36,24.81,61.00,0,118.29,65.00,110.60, TAKIP |  DIREKT
1764459027.21,119.99,0.00,51.32,0.00,0.00,0.00,0.00,3,113.45,12.08,110.70,77.65,24.89,60.95,0,118.42,65.00,110.70, TAKIP |  DIREKT
1764459027.23,119.99,0.00,51.34,0.00,0.00,0.00,0.00,3,113.55,11.82,110.74,77.73,24.88,60.91,0,118.58,65.00,110.74, TAKIP |  DIREKT
1764459027.25,119.99,0.00,51.36,0.00,0.00,0.00,0.00,3,114.03,10.80,110.81,78.61,24.54,60.71,0,118.89,65.00,110.81, TAKIP |  DIREKT
1764459027.28,119.99,0.00,51.39,0.00,0.00,0.00,0.00,3,114.35,10.07,110.87,78.91,24.51,60.60,0,119.25,65.00,110.87, TAKIP |  DIREKT
1764459027.30,119.99,0.00,51.41,0.00,0.00,0.00,0.00,3,116.01,6.58,111.06,79.84,63.01,60.14,0,121.12,65.00,111.06, TAKIP |  DIREKT
1764459027.32,119.99,0.00,51.44,0.00,0.00,0.00,0.00,3,116.22,6.10,111.14,80.09,63.04,60.14,0,121.67,65.00,111.14, TAKIP |  DIREKT
1764459027.34,119.99,0.00,51.46,0.00,0.00,0.00,0.00,3,116.26,5.98,111.24,80.94,55.40,60.19,0,121.95,65.00,111.24, TAKIP |  DIREKT
1764459027.36,119.99,0.00,51.48,0.00,0.00,0.00,0.00,3,116.46,5.53,111.33,81.17,55.40,60.20,0,122.53,65.00,111.33, TAKIP |  DIREKT
1764459027.38,119.99,0.00,51.51,0.00,0.00,0.00,0.00,3,116.61,5.19,111.40,81.23,55.50,60.21,0,123.00,65.00,111.40, TAKIP |  DIREKT
1764459027.40,119.99,0.00,51.53,0.00,0.00,0.00,0.00,3,117.03,4.29,111.52,81.95,59.47,60.21,0,124.66,65.00,111.52, TAKIP |  DIREKT
1764459027.42,119.99,0.00,51.56,0.00,0.00,0.00,0.00,3,117.20,3.88,111.61,82.15,59.51,60.24,0,125.64,65.00,111.61, TAKIP |  DIREKT
1764459027.44,119.99,0.00,51.58,0.00,0.00,0.00,0.00,3,117.54,3.13,111.73,82.82,60.12,60.28,0,128.04,65.00,111.73, TAKIP |  DIREKT
1764459027.46,119.99,0.00,51.61,0.00,0.00,0.00,0.00,3,117.70,2.69,111.82,83.00,60.01,60.31,0,130.32,65.00,111.82, TAKIP |  DIREKT
1764459027.49,119.99,0.00,51.64,0.00,0.00,0.00,0.00,3,118.14,1.68,111.88,83.05,60.08,60.29,0,136.32,65.00,111.88, TAKIP |  DIREKT
1764459027.51,119.99,0.00,51.66,0.00,0.00,0.00,0.00,3,117.84,2.25,111.90,83.62,41.69,60.32,0,133.67,65.00,111.90, TAKIP |  DIREKT
1764459027.53,119.99,0.00,51.69,0.00,0.00,0.00,0.00,3,118.06,1.72,111.97,83.77,41.67,60.34,0,138.39,65.00,111.97, TAKIP |  DIREKT
1764459027.55,119.99,0.00,51.72,0.00,0.00,0.00,0.00,3,118.33,1.09,112.06,84.28,41.42,60.38,0,144.39,65.00,112.06, TAKIP |  DIREKT
1764459027.57,119.99,0.00,51.74,0.00,0.00,0.00,0.00,3,118.53,0.67,112.14,84.42,41.37,60.42,0,150.39,65.00,112.14, TAKIP |  DIREKT
1764459027.59,119.99,0.00,51.77,0.00,0.00,0.00,0.00,3,118.65,0.40,112.21,84.46,41.37,60.45,0,156.39,65.00,112.21, TAKIP |  DIREKT
1764459027.61,119.99,0.00,51.80,0.00,0.00,0.00,0.00,3,120.05,-2.69,112.39,84.86,73.83,60.65,0,162.39,65.00,112.39, TAKIP |  ARKA HİZA
1764459027.63,119.99,0.00,51.83,0.00,0.00,0.00,0.00,3,120.24,-3.12,112.47,84.97,73.82,60.72,0,168.39,65.00,112.47, TAKIP |  ARKA HİZA
1764459027.65,119.99,0.00,51.86,0.00,0.00,0.00,0.00,3,120.28,-3.22,112.56,85.31,66.27,60.79,0,174.39,65.00,112.56, TAKIP |  ARKA HİZA
1764459027.68,119.99,0.00,51.89,0.00,0.00,0.00,0.00,3,120.49,-3.68,112.65,85.40,66.28,60.87,0,180.39,65.00,112.65, TAKIP |  ARKA HİZA
1764459027.70,119.99,0.00,51.92,0.00,0.00,0.00,0.00,3,120.63,-4.03,112.77,85.65,76.30,60.99,0,186.39,65.00,112.77, TAKIP |  ARKA HİZA
1764459027.72,119.99,0.00,51.95,0.00,0.00,0.00,0.00,3,121.15,-5.25,112.84,85.72,76.30,61.13,0,192.39,65.00,112.84, TAKIP |  ARKA HİZA
1764459027.74,119.99,0.00,51.98,0.00,0.00,0.00,0.00,3,121.50,-6.13,112.90,85.73,76.28,61.25,0,198.39,65.00,112.90, TAKIP |  ARKA HİZA
1764459027.76,119.99,0.00,52.01,0.00,0.00,0.00,0.00,3,120.08,-2.94,112.84,85.88,24.38,60.91,0,204.39,65.00,112.84, TAKIP |  ARKA HİZA
1764459027.78,119.99,0.00,52.04,0.00,0.00,0.00,0.00,3,120.32,-3.50,112.92,85.92,24.33,60.98,0,210.39,65.00,112.92, TAKIP |  ARKA HİZA
1764459027.80,119.99,0.00,52.07,0.00,0.00,0.00,0.00,3,121.89,-7.01,113.11,86.00,59.89,61.47,0,216.39,65.00,113.11, TAKIP |  ARKA HİZA
1764459027.82,119.99,0.00,52.10,0.00,0.00,0.00,0.00,3,122.12,-7.51,113.19,86.01,59.86,61.59,0,222.39,65.00,113.19, TAKIP |  ARKA HİZA
1764459027.84,119.99,0.00,52.13,0.00,0.00,0.00,0.00,3,122.30,-7.88,113.26,86.02,59.91,61.67,0,228.39,65.00,113.26, TAKIP |  ARKA HİZA
1764459027.86,119.99,0.00,52.17,0.00,0.00,0.00,0.00,3,122.47,-8.24,113.35,86.00,56.61,61.78,0,234.39,65.00,113.35, TAKIP |  ARKA HİZA
1764459027.89,119.99,0.00,52.20,0.00,0.00,0.00,0.00,3,122.66,-8.67,113.42,85.99,56.61,61.89,0,240.39,65.00,113.42, TAKIP |  ARKA HİZA
1764459027.91,119.99,0.00,52.23,0.00,0.00,0.00,0.00,3,123.83,-11.28,113.60,85.89,81.02,62.52,0,246.39,65.00,113.60, TAKIP |  ARKA HİZA
1764459027.93,119.99,0.00,52.27,0.00,0.00,0.00,0.00,3,123.95,-11.60,113.66,85.86,81.00,62.60,0,252.39,65.00,113.66, TAKIP |  ARKA HİZA
1764459027.95,119.99,0.00,52.30,0.00,0.00,0.00,0.00,3,122.43,-8.17,113.57,85.68,22.99,61.86,0,258.39,65.00,113.57, TAKIP |  ARKA HİZA
1764459027.97,119.99,0.00,52.33,0.00,0.00,0.00,0.00,3,122.79,-9.04,113.64,85.61,23.06,62.04,0,264.39,65.00,113.64, TAKIP |  ARKA HİZA
1764459027.99,119.99,0.00,52.37,0.00,0.00,0.00,0.00,3,123.01,-9.56,113.71,85.60,22.97,62.16,0,270.39,65.00,113.71, TAKIP |  ARKA HİZA
1764459028.01,119.99,0.00,52.40,0.00,0.00,0.00,0.00,3,124.35,-12.54,113.88,85.32,53.47,62.90,0,276.39,65.00,113.88, TAKIP |  ARKA HİZA
1764459028.03,119.99,0.00,52.44,0.00,0.00,0.00,0.00,3,124.54,-12.93,113.96,85.24,53.41,63.03,0,282.39,65.00,113.96, TAKIP |  ARKA HİZA
1764459028.05,119.99,0.00,52.47,0.00,0.00,0.00,0.00,3,125.35,-14.64,114.10,84.87,67.73,63.57,0,288.39,65.00,114.10, TAKIP |  ARKA HİZA
1764459028.08,119.99,0.00,52.51,0.00,0.00,0.00,0.00,3,125.54,-15.02,114.18,84.77,67.67,63.72,0,294.27,65.00,114.18, TAKIP |  ARKA HİZA
1764459028.10,119.99,0.00,52.54,0.00,0.00,0.00,0.00,3,125.70,-15.34,114.25,84.74,67.79,63.84,0,294.28,65.00,114.25, TAKIP |  ARKA HİZA
1764459028.12,119.99,0.00,52.58,0.00,0.00,0.00,0.00,3,126.25,-16.50,114.37,84.30,75.68,64.26,0,294.40,65.00,114.37, TAKIP |  ARKA HİZA
1764459028.14,119.99,0.00,52.62,0.00,0.00,0.00,0.00,3,126.46,-16.92,114.44,84.18,75.71,64.42,0,294.44,65.00,114.44, TAKIP |  ARKA HİZA
1764459028.16,119.99,0.00,52.65,0.00,0.00,0.00,0.00,3,126.25,-16.39,114.49,83.64,64.78,64.28,0,294.71,65.00,114.49, TAKIP |  ARKA HİZA
1764459028.18,119.99,0.00,52.69,0.00,0.00,0.00,0.00,3,126.72,-17.46,114.55,83.50,64.80,64.63,0,294.64,65.00,114.55, TAKIP |  ARKA HİZA
1764459028.20,119.99,0.00,52.73,0.00,0.00,0.00,0.00,3,126.01,-15.90,114.54,82.86,32.56,64.11,0,294.82,65.00,114.54, TAKIP |  ARKA HİZA
1764459028.22,119.99,0.00,52.77,0.00,0.00,0.00,0.00,3,126.28,-16.50,114.62,82.68,32.54,64.33,0,294.89,65.00,114.62, TAKIP |  ARKA HİZA
1764459028.24,119.99,0.00,52.80,0.00,0.00,0.00,0.00,3,126.44,-16.84,114.68,82.64,32.59,64.45,0,294.92,65.00,114.68, TAKIP |  ARKA HİZA
1764459028.26,119.99,0.00,52.84,0.00,0.00,0.00,0.00,3,126.54,-16.97,114.76,81.95,27.41,64.53,0,295.14,65.00,114.76, TAKIP |  ARKA HİZA
1764459028.29,119.99,0.00,52.88,0.00,0.00,0.00,0.00,3,126.72,-17.31,114.83,81.76,27.40,64.67,0,295.22,65.00,114.83, TAKIP |  ARKA HİZA
1764459028.31,119.99,0.00,52.92,0.00,0.00,0.00,0.00,3,127.00,-17.83,114.93,80.96,26.96,64.90,0,295.47,65.00,114.93, TAKIP |  ARKA HİZA
1764459028.33,119.99,0.00,52.96,0.00,0.00,0.00,0.00,3,127.23,-18.25,115.00,80.74,27.16,65.07,0,295.57,65.00,115.00, TAKIP |  ARKA HİZA
1764459028.35,119.99,0.00,53.00,0.00,0.00,0.00,0.00,3,127.39,-18.55,115.06,80.69,27.00,65.19,0,295.59,65.00,115.06, TAKIP |  ARKA HİZA
1764459028.37,119.99,0.00,53.05,0.00,0.00,0.00,0.00,3,129.45,-22.72,115.31,79.84,77.64,66.95,0,296.00,65.00,115.31, TAKIP |  ARKA HİZA
1764459028.39,119.99,0.00,53.09,0.00,0.00,0.00,0.00,3,129.88,-23.61,115.37,79.63,77.66,67.34,0,295.96,65.00,115.37, TAKIP |  ARKA HİZA
1764459028.41,119.99,0.00,53.13,0.00,0.00,0.00,0.00,3,128.44,-20.65,115.29,78.66,25.56,66.05,0,296.25,65.00,115.29, TAKIP |  ARKA HİZA
1764459028.43,119.99,0.00,53.17,0.00,0.00,0.00,0.00,3,128.67,-21.11,115.36,78.40,25.55,66.25,0,296.36,65.00,115.36, TAKIP |  ARKA HİZA
1764459028.45,119.99,0.00,53.21,0.00,0.00,0.00,0.00,3,128.81,-21.37,115.42,78.33,25.56,66.37,0,296.41,65.00,115.42, TAKIP |  ARKA HİZA
1764459028.47,119.99,0.00,53.25,0.00,0.00,0.00,0.00,3,130.28,-24.21,115.60,77.34,61.37,67.67,0,296.76,65.00,115.60, TAKIP |  ARKA HİZA
1764459028.49,119.99,0.00,53.30,0.00,0.00,0.00,0.00,3,130.46,-24.49,115.67,77.08,61.43,67.82,0,296.88,65.00,115.67, TAKIP |  ARKA HİZA
1764459028.52,119.99,0.00,53.34,0.00,0.00,0.00,0.00,3,129.45,-22.42,115.65,75.98,24.31,66.89,0,297.27,65.00,115.65, TAKIP |  ARKA HİZA
1764459028.54,119.99,0.00,53.38,0.00,0.00,0.00,0.00,3,129.66,-22.75,115.72,75.69,24.30,67.06,0,297.42,65.00,115.72, TAKIP |  ARKA HİZA
1764459028.56,119.99,0.00,53.43,0.00,0.00,0.00,0.00,3,130.71,-24.66,115.88,74.51,45.39,67.99,0,297.86,65.00,115.88, TAKIP |  ARKA HİZA
1764459028.58,119.99,0.00,53.47,0.00,0.00,0.00,0.00,3,130.95,-25.05,115.94,74.19,45.42,68.19,0,298.04,65.00,115.94, TAKIP |  ARKA HİZA
1764459028.60,119.99,0.00,53.52,0.00,0.00,0.00,0.00,3,131.39,-25.88,116.00,74.12,45.44,68.59,0,298.03,65.00,116.00, TAKIP |  ARKA HİZA
1764459028.62,119.99,0.00,53.56,0.00,0.00,0.00,0.00,3,131.44,-25.93,116.05,72.95,36.74,68.61,0,298.49,65.00,116.05, TAKIP |  ARKA HİZA
1764459028.64,119.99,0.00,53.61,0.00,0.00,0.00,0.00,3,131.65,-26.29,116.11,72.63,36.66,68.80,0,298.66,65.00,116.11, TAKIP |  ARKA HİZA
1764459028.66,119.99,0.00,53.66,0.00,0.00,0.00,0.00,3,131.64,-26.18,116.17,71.32,28.62,68.76,0,299.21,65.00,116.17, TAKIP |  ARKA HİZA
1764459028.68,119.99,0.00,53.70,0.00,0.00,0.00,0.00,3,131.81,-26.41,116.23,70.97,28.55,68.90,0,299.41,65.00,116.23, TAKIP |  ARKA HİZA
1764459028.70,119.99,0.00,53.75,0.00,0.00,0.00,0.00,3,131.93,-26.55,116.28,70.88,28.58,68.98,0,299.49,65.00,116.28, TAKIP |  ARKA HİZA
1764459028.73,119.99,0.00,53.79,0.00,0.00,0.00,0.00,3,133.65,-29.44,116.48,69.58,70.58,70.59,0,300.04,65.00,116.48, TAKIP |  ARKA HİZA
1764459028.75,119.99,0.00,53.84,0.00,0.00,0.00,0.00,3,133.83,-29.67,116.54,69.23,70.51,70.73,0,300.24,65.00,116.54, TAKIP |  ARKA HİZA
1764459028.77,119.99,0.00,53.89,0.00,0.00,0.00,0.00,3,133.89,-29.62,116.61,67.83,63.94,70.74,0,300.90,65.00,116.61, TAKIP |  ARKA HİZA
1764459028.79,119.99,0.00,53.94,0.00,0.00,0.00,0.00,3,134.11,-29.88,116.66,67.45,63.98,70.90,0,301.17,65.00,116.66, TAKIP |  ARKA HİZA
1764459028.81,119.99,0.00,53.98,0.00,0.00,0.00,0.00,3,134.64,-30.76,116.73,67.35,64.78,71.40,0,301.17,65.00,116.73, TAKIP |  ARKA HİZA
1764459028.83,119.99,0.00,54.03,0.00,0.00,0.00,0.00,3,133.67,-29.11,116.68,65.95,27.13,70.42,0,301.87,65.00,116.68, TAKIP |  ARKA HİZA
1764459028.85,119.99,0.00,54.08,0.00,0.00,0.00,0.00,3,133.83,-29.33,116.74,65.57,27.29,70.55,0,302.12,65.00,116.74, TAKIP |  ARKA HİZA
1764459028.87,119.99,0.00,54.13,0.00,0.00,0.00,0.00,3,134.00,-29.49,116.80,64.06,24.97,70.66,0,302.93,63.87,116.80, TAKIP |  ARKA HİZA
1764459028.89,119.99,0.00,54.19,0.00,0.00,0.00,0.00,3,134.19,-29.71,116.86,63.65,24.98,70.80,0,303.23,63.47,116.86, TAKIP |  ARKA HİZA
1764459028.91,119.99,0.00,54.24,0.00,0.00,0.00,0.00,3,134.32,-29.84,116.91,63.55,25.08,70.88,0,303.33,63.36,116.91, TAKIP |  ARKA HİZA
1764459028.94,119.99,0.00,54.29,0.00,0.00,0.00,0.00,3,134.62,-30.18,116.98,62.08,26.25,71.10,0,304.15,61.90,116.98, TAKIP |  ARKA HİZA
1764459028.96,119.99,0.00,54.34,0.00,0.00,0.00,0.00,3,134.80,-30.38,117.04,61.68,26.29,71.23,0,304.45,61.51,117.04, TAKIP |  ARKA HİZA
1764459028.98,119.99,0.00,54.40,0.00,0.00,0.00,0.00,3,135.51,-31.28,117.15,60.11,38.03,71.82,0,305.42,59.97,117.15, TAKIP |  ARKA HİZA
1764459029.00,119.99,0.00,54.45,0.00,0.00,0.00,0.00,3,135.73,-31.51,117.22,59.69,37.91,71.98,0,305.83,59.55,117.22, TAKIP |  ARKA HİZA
1764459029.02,119.99,0.00,54.50,0.00,0.00,0.00,0.00,3,135.73,-31.43,117.24,58.22,22.64,71.91,0,306.97,58.08,117.24, TAKIP |  ARKA HİZA
1764459029.04,119.99,0.00,54.56,0.00,0.00,0.00,0.00,3,136.08,-31.85,117.30,57.72,22.62,72.18,0,307.27,57.59,117.30, TAKIP |  ARKA HİZA
1764459029.06,119.99,0.00,54.61,0.00,0.00,0.00,0.00,3,136.28,-32.07,117.35,57.58,22.63,72.32,0,307.37,57.46,117.35, TAKIP |  ARKA HİZA
1764459029.08,119.99,0.00,54.67,0.00,0.00,0.00,0.00,3,138.13,-34.31,117.56,56.06,68.42,73.90,0,308.46,56.01,117.56, TAKIP |  ARKA HİZA
1764459029.10,119.99,0.00,54.72,0.00,0.00,0.00,0.00,3,138.28,-34.40,117.61,55.65,68.44,73.98,0,308.86,55.60,117.61, TAKIP |  ARKA HİZA
1764459029.12,119.99,0.00,54.78,0.00,0.00,0.00,0.00,3,137.38,-33.15,117.57,54.05,34.76,73.11,0,310.15,53.97,117.57, TAKIP |  ARKA HİZA
1764459029.15,119.99,0.00,54.83,0.00,0.00,0.00,0.00,3,137.58,-33.29,117.63,53.63,34.76,73.22,0,310.62,53.55,117.63, TAKIP |  ARKA HİZA
1764459029.17,119.99,0.00,54.89,0.00,0.00,0.00,0.00,3,137.72,-33.39,117.67,53.51,34.75,73.28,0,310.79,53.43,117.67, TAKIP |  ARKA HİZA
1764459029.19,119.99,0.00,54.95,0.00,0.00,0.00,0.00,3,138.34,-33.97,117.76,52.01,45.15,73.73,0,312.11,51.96,117.76, TAKIP |  ARKA HİZA
1764459029.21,119.99,0.00,55.01,0.00,0.00,0.00,0.00,3,138.53,-34.10,117.82,51.61,45.11,73.83,0,312.63,51.56,117.82, TAKIP |  ARKA HİZA
1764459029.23,119.99,0.00,55.07,0.00,0.00,0.00,0.00,3,140.15,-35.64,117.97,50.15,75.98,75.06,0,314.37,50.15,117.97, TAKIP |  ARKA HİZA
1764459029.25,119.99,0.00,55.12,0.00,0.00,0.00,0.00,3,140.48,-35.90,118.03,49.65,75.96,75.27,0,314.84,49.66,118.03, TAKIP |  ARKA HİZA
1764459029.27,119.99,0.00,55.18,0.00,0.00,0.00,0.00,3,140.71,-35.91,118.09,48.08,73.27,75.34,0,316.56,48.09,118.09, TAKIP |  ARKA HİZA
1764459029.29,119.99,0.00,55.24,0.00,0.00,0.00,0.00,3,140.91,-35.98,118.14,47.65,73.15,75.43,0,317.17,47.67,118.14, TAKIP |  ARKA HİZA
1764459029.31,119.99,0.00,55.30,0.00,0.00,0.00,0.00,3,141.05,-36.03,118.18,47.54,73.18,75.48,0,317.39,47.56,118.18, TAKIP |  ARKA HİZA
1764459029.33,119.99,0.00,55.36,0.00,0.00,0.00,0.00,3,141.14,-35.92,118.23,46.13,68.88,75.43,0,319.18,46.15,118.23, TAKIP |  ARKA HİZA
1764459029.36,119.99,0.00,55.42,0.00,0.00,0.00,0.00,3,141.31,-35.96,118.27,45.75,68.89,75.49,0,319.83,45.78,118.27, TAKIP |  ARKA HİZA
1764459029.38,119.99,0.00,55.48,0.00,0.00,0.00,0.00,3,139.98,-34.71,118.20,44.31,22.19,74.41,0,321.97,44.29,118.20, TAKIP |  ARKA HİZA
1764459029.40,119.99,0.00,55.55,0.00,0.00,0.00,0.00,3,140.19,-34.79,118.24,43.93,22.16,74.49,0,322.75,43.90,118.24, TAKIP |  ARKA HİZA
1764459029.42,119.99,0.00,55.61,0.00,0.00,0.00,0.00,3,140.33,-34.84,118.27,43.82,22.21,74.53,0,323.02,43.80,118.27, TAKIP |  ARKA HİZA
1764459029.44,119.99,0.00,55.67,0.00,0.00,0.00,0.00,3,141.63,-35.45,118.46,42.55,73.18,75.29,0,326.43,42.57,118.46, TAKIP |  ARKA HİZA
1764459029.46,119.99,0.00,55.73,0.00,0.00,0.00,0.00,3,142.18,-35.81,118.52,42.24,73.22,75.61,0,326.43,42.26,118.52, TAKIP |  ARKA HİZA
1764459029.48,119.99,0.00,55.79,0.00,0.00,0.00,0.00,3,140.93,-34.91,118.43,40.97,22.77,74.70,0,328.79,40.96,118.43, TAKIP |  ARKA HİZA
1764459029.50,119.99,0.00,55.86,0.00,0.00,0.00,0.00,3,141.31,-35.10,118.48,40.62,22.86,74.89,0,329.57,40.62,118.48, TAKIP |  ARKA HİZA
1764459029.52,119.99,0.00,55.92,0.00,0.00,0.00,0.00,3,141.57,-35.21,118.52,40.53,22.90,75.00,0,329.85,40.53,118.52, TAKIP |  ARKA HİZA
1764459029.54,119.99,0.00,55.99,0.00,0.00,0.00,0.00,3,69.87,-37.90,118.63,39.28,40.87,88.72,0,323.85,39.89,118.63, TAKIP |  DIREKT
1764459029.57,119.99,0.00,56.05,0.00,0.00,0.00,0.00,2,31.89,-14.19,129.30,32.07,48.58,115.45,0,317.85,33.86,129.30, TAKIP |  DIREKT
1764459029.59,119.99,0.00,56.12,0.00,0.00,0.00,0.00,2,33.20,-14.62,129.39,32.07,78.22,114.52,0,311.85,33.82,129.39, TAKIP |  DIREKT
1764459029.61,119.99,0.00,56.19,0.00,0.00,0.00,0.00,2,33.49,-14.71,129.41,32.06,78.17,114.28,0,305.85,33.81,129.41, TAKIP |  DIREKT
1764459029.63,119.99,0.00,56.25,0.00,0.00,0.00,0.00,2,33.56,-14.72,129.41,32.06,66.20,114.19,0,299.85,33.80,129.41, TAKIP |  DIREKT
1764459029.65,119.99,0.00,56.32,0.00,0.00,0.00,0.00,2,33.89,-14.82,129.42,32.06,66.17,113.92,0,293.85,33.79,129.42, TAKIP |  DIREKT
1764459029.67,119.99,0.00,56.39,0.00,0.00,0.00,0.00,2,34.31,-14.95,129.46,32.06,66.14,113.59,0,287.85,33.78,129.46, TAKIP |  DIREKT
1764459029.69,119.99,0.00,56.46,0.00,0.00,0.00,0.00,2,34.58,-15.03,129.48,32.06,60.78,113.37,0,281.85,33.77,129.48, TAKIP |  DIREKT
1764459029.71,119.99,0.00,56.53,0.00,0.00,0.00,0.00,2,34.87,-15.12,129.51,32.06,60.61,113.13,0,275.85,33.76,129.51, TAKIP |  DIREKT
1764459029.73,119.99,0.00,56.60,0.00,0.00,0.00,0.00,2,35.42,-15.28,129.55,32.06,65.71,112.72,0,269.85,33.74,129.55, TAKIP |  DIREKT
1764459029.75,119.99,0.00,56.67,0.00,0.00,0.00,0.00,2,35.69,-15.35,129.57,32.06,65.66,112.50,0,263.85,33.73,129.57, TAKIP |  DIREKT
1764459029.78,119.99,0.00,56.74,0.00,0.00,0.00,0.00,2,35.89,-15.41,129.59,32.06,66.15,112.32,0,257.85,33.72,129.59, TAKIP |  DIREKT
1764459029.80,119.99,0.00,56.81,0.00,0.00,0.00,0.00,2,36.42,-15.55,129.62,32.06,71.69,111.92,0,251.85,33.70,129.62, TAKIP |  DIREKT
1764459029.82,119.99,0.00,56.89,0.00,0.00,0.00,0.00,2,36.67,-15.62,129.63,32.06,71.67,111.71,0,245.85,33.69,129.63, TAKIP |  DIREKT
1764459029.84,119.99,0.00,56.96,0.00,0.00,0.00,0.00,2,35.71,-15.34,129.57,32.06,27.75,112.29,0,239.85,33.72,129.57, TAKIP |  DIREKT
1764459029.86,119.99,0.00,57.03,0.00,0.00,0.00,0.00,2,36.00,-15.42,129.58,32.06,27.82,112.05,0,233.85,33.70,129.58, TAKIP |  DIREKT
1764459029.88,119.99,0.00,57.11,0.00,0.00,0.00,0.00,2,36.21,-15.48,129.59,32.05,27.74,111.85,0,227.85,33.69,129.59, TAKIP |  DIREKT
1764459029.90,119.99,0.00,57.18,0.00,0.00,0.00,0.00,2,36.81,-15.64,129.64,32.06,35.87,111.41,0,221.85,33.67,129.64, TAKIP |  DIREKT
1764459029.92,119.99,0.00,57.26,0.00,0.00,0.00,0.00,2,37.28,-15.76,129.67,32.06,36.11,111.05,0,215.85,33.66,129.67, TAKIP |  DIREKT
1764459029.94,119.99,0.00,57.33,0.00,0.00,0.00,0.00,2,37.68,-15.86,129.70,32.06,34.57,110.74,0,209.85,33.64,129.70, TAKIP |  DIREKT
1764459029.97,119.99,0.00,57.41,0.00,0.00,0.00,0.00,2,37.99,-15.94,129.72,32.06,34.60,110.48,0,203.85,33.63,129.72, TAKIP |  DIREKT
1764459029.99,119.99,0.00,57.48,0.00,0.00,0.00,0.00,2,38.86,-16.15,129.77,32.06,50.24,109.86,0,197.85,33.60,129.77, TAKIP |  DIREKT
1764459030.01,119.99,0.00,57.56,0.00,0.00,0.00,0.00,2,39.12,-16.21,129.79,32.05,50.17,109.63,0,191.85,33.59,129.79, TAKIP |  DIREKT
1764459030.03,119.99,0.00,57.63,0.00,0.00,0.00,0.00,2,39.32,-16.26,129.80,32.05,50.21,109.45,0,191.40,33.59,129.80, TAKIP |  DIREKT
1764459030.05,119.99,0.00,57.71,0.00,0.00,0.00,0.00,2,40.42,-16.51,129.86,32.05,74.70,108.67,0,191.72,33.55,129.86, TAKIP |  DIREKT
1764459030.07,119.99,0.00,57.79,0.00,0.00,0.00,0.00,2,40.67,-16.56,129.87,32.05,74.66,108.45,0,191.79,33.54,129.87, TAKIP |  DIREKT
1764459030.09,119.99,0.00,57.87,0.00,0.00,0.00,0.00,2,39.70,-16.33,129.80,32.05,29.92,109.03,0,191.50,33.56,129.80, TAKIP |  DIREKT
1764459030.11,119.99,0.00,57.95,0.00,0.00,0.00,0.00,2,40.01,-16.40,129.82,32.05,30.03,108.76,0,191.59,33.55,129.82, TAKIP |  DIREKT
1764459030.13,119.99,0.00,58.03,0.00,0.00,0.00,0.00,2,40.36,-16.47,129.84,32.05,29.81,108.49,0,191.69,33.54,129.84, TAKIP |  DIREKT
1764459030.16,119.99,0.00,58.12,0.00,0.00,0.00,0.00,2,42.30,-16.88,129.96,32.05,78.42,107.15,0,192.26,33.48,129.96, TAKIP |  DIREKT
1764459030.18,119.99,0.00,58.20,0.00,0.00,0.00,0.00,2,42.57,-16.93,129.98,32.05,78.19,106.92,0,192.34,33.47,129.98, TAKIP |  DIREKT
1764459030.20,119.99,0.00,58.28,0.00,0.00,0.00,0.00,2,41.12,-16.62,129.89,32.05,21.96,107.81,0,191.90,33.51,129.89, TAKIP |  DIREKT
1764459030.22,119.99,0.00,58.36,0.00,0.00,0.00,0.00,2,41.36,-16.67,129.90,32.05,21.93,107.60,0,191.97,33.50,129.90, TAKIP |  DIREKT
1764459030.24,119.99,0.00,58.45,0.00,0.00,0.00,0.00,2,41.53,-16.70,129.91,32.05,21.91,107.43,0,192.02,33.49,129.91, TAKIP |  DIREKT
1764459030.26,119.99,0.00,58.53,0.00,0.00,0.00,0.00,2,41.89,-16.76,129.92,32.05,23.32,107.13,0,192.11,33.48,129.92, TAKIP |  DIREKT
1764459030.28,119.99,0.00,58.61,0.00,0.00,0.00,0.00,2,42.11,-16.80,129.92,32.05,23.31,106.93,0,192.17,33.47,129.92, TAKIP |  DIREKT
1764459030.30,119.99,0.00,58.70,0.00,0.00,0.00,0.00,2,43.18,-16.98,129.97,32.05,46.07,106.15,0,192.47,33.43,129.97, TAKIP |  DIREKT
1764459030.32,119.99,0.00,58.78,0.00,0.00,0.00,0.00,2,43.44,-17.02,129.97,32.04,46.01,105.92,0,192.54,33.42,129.97, TAKIP |  DIREKT
1764459030.34,119.99,0.00,58.87,0.00,0.00,0.00,0.00,2,43.42,-17.01,129.98,32.05,33.08,105.87,0,192.52,33.42,129.98, TAKIP |  DIREKT
1764459030.37,119.99,0.00,58.95,0.00,0.00,0.00,0.00,2,43.87,-17.07,130.01,32.05,33.10,105.52,0,192.64,33.40,130.01, TAKIP |  DIREKT
1764459030.39,119.99,0.00,59.04,0.00,0.00,0.00,0.00,2,44.20,-17.12,130.03,32.05,33.14,105.25,0,192.73,33.39,130.03, TAKIP |  DIREKT
1764459030.41,119.99,0.00,59.12,0.00,0.00,0.00,0.00,2,45.83,-17.35,130.11,32.05,73.51,104.12,0,193.17,33.34,130.11, TAKIP |  DIREKT
1764459030.43,119.99,0.00,59.21,0.00,0.00,0.00,0.00,2,46.05,-17.38,130.12,32.05,73.57,103.91,0,193.22,33.33,130.12, TAKIP |  DIREKT
1764459030.45,119.99,0.00,59.30,0.00,0.00,0.00,0.00,2,46.62,-17.43,130.14,32.05,81.09,103.46,0,193.37,33.31,130.14, TAKIP |  DIREKT
1764459030.47,119.99,0.00,59.39,0.00,0.00,0.00,0.00,2,46.86,-17.45,130.15,32.04,81.02,103.24,0,193.42,33.30,130.15, TAKIP |  DIREKT
1764459030.49,119.99,0.00,59.49,0.00,0.00,0.00,0.00,2,47.03,-17.47,130.15,32.04,80.99,103.06,0,193.46,33.29,130.15, TAKIP |  DIREKT
1764459030.51,119.99,0.00,59.58,0.00,0.00,0.00,0.00,2,45.73,-17.30,130.06,32.04,30.03,103.84,0,193.11,33.32,130.06, TAKIP |  DIREKT
1764459030.53,119.99,0.00,59.67,0.00,0.00,0.00,0.00,2,45.93,-17.31,130.06,32.04,30.01,103.63,0,193.16,33.31,130.06, TAKIP |  DIREKT
1764459030.56,119.99,0.00,59.76,0.00,0.00,0.00,0.00,2,47.38,-17.45,130.12,32.04,64.68,102.59,0,193.52,33.27,130.12, TAKIP |  DIREKT
1764459030.58,119.99,0.00,59.86,0.00,0.00,0.00,0.00,2,47.63,-17.47,130.12,32.04,64.71,102.36,0,193.57,33.26,130.12, TAKIP |  DIREKT
1764459030.60,119.99,0.00,59.95,0.00,0.00,0.00,0.00,2,48.52,-17.52,130.17,32.04,76.71,101.71,0,193.77,33.23,130.17, TAKIP |  DIREKT
1764459030.62,119.99,0.00,60.04,0.00,0.00,0.00,0.00,2,48.89,-17.54,130.19,32.04,76.71,101.40,0,193.86,33.21,130.19, TAKIP |  DIREKT
1764459030.64,119.99,0.00,60.14,0.00,0.00,0.00,0.00,2,49.13,-17.56,130.20,32.04,76.72,101.18,0,193.92,33.20,130.20, TAKIP |  DIREKT
1764459030.66,119.99,0.00,60.23,0.00,0.00,0.00,0.00,2,49.20,-17.54,130.19,32.04,69.46,101.06,0,193.92,33.20,130.19, TAKIP |  DIREKT
1764459030.68,119.99,0.00,60.33,0.00,0.00,0.00,0.00,2,49.41,-17.54,130.20,32.04,69.55,100.85,0,193.96,33.19,130.20, TAKIP |  DIREKT
1764459030.70,119.99,0.00,60.42,0.00,0.00,0.00,0.00,2,48.41,-17.47,130.13,32.04,29.16,101.43,0,193.72,33.21,130.13, TAKIP |  DIREKT
1764459030.72,119.99,0.00,60.52,0.00,0.00,0.00,0.00,2,48.64,-17.34,130.13,32.04,29.15,101.18,0,193.66,33.20,130.13, TAKIP |  DIREKT
1764459030.75,119.99,0.00,60.61,0.00,0.00,0.00,0.00,2,48.80,-17.41,130.13,32.04,29.28,101.01,0,193.74,33.19,130.13, TAKIP |  DIREKT
1764459030.77,119.99,0.00,60.71,0.00,0.00,0.00,0.00,2,49.01,-17.54,130.12,32.03,26.75,100.81,0,193.88,33.18,130.12, TAKIP |  DIREKT
1764459030.79,119.99,0.00,60.81,0.00,0.00,0.00,0.00,2,49.22,-17.96,130.13,32.03,26.78,100.68,0,194.24,33.18,130.13, TAKIP |  DIREKT
1764459030.81,119.99,0.00,60.91,0.00,0.00,0.00,0.00,2,51.03,-18.43,130.22,32.04,68.25,99.49,0,194.96,33.12,130.22, TAKIP |  DIREKT
1764459030.83,119.99,0.00,61.01,0.00,0.00,0.00,0.00,2,51.41,-18.58,130.23,32.03,68.24,99.20,0,195.16,33.11,130.23, TAKIP |  DIREKT
1764459030.85,119.99,0.00,61.11,0.00,0.00,0.00,0.00,2,51.64,-18.58,130.24,32.03,68.30,98.97,0,195.21,33.10,130.24, TAKIP |  DIREKT
1764459030.87,119.99,0.00,61.21,0.00,0.00,0.00,0.00,2,51.18,-18.30,130.21,32.03,45.69,99.14,0,194.89,33.11,130.21, TAKIP |  DIREKT
1764459030.89,119.99,0.00,61.32,0.00,0.00,0.00,0.00,2,51.36,-17.25,130.20,32.03,45.68,98.76,0,194.11,33.09,130.20, TAKIP |  DIREKT
1764459030.91,119.99,0.00,61.42,0.00,0.00,0.00,0.00,2,52.34,-17.14,130.23,32.03,67.80,98.01,0,194.22,33.06,130.23, TAKIP |  DIREKT
1764459030.94,119.99,0.00,61.52,0.00,0.00,0.00,0.00,2,52.54,-17.37,130.22,32.03,67.60,97.83,0,194.45,33.05,130.22, TAKIP |  DIREKT
1764459030.96,119.99,0.00,61.62,0.00,0.00,0.00,0.00,2,51.90,-17.64,130.17,32.03,37.83,98.22,0,194.52,33.06,130.17, TAKIP |  DIREKT
1764459030.98,119.99,0.00,61.73,0.00,0.00,0.00,0.00,2,52.13,-17.55,130.16,32.03,37.79,97.96,0,194.50,33.05,130.16, TAKIP |  DIREKT
1764459031.00,119.99,0.00,61.83,0.00,0.00,0.00,0.00,2,52.54,-17.51,130.18,32.03,37.86,97.61,0,194.55,33.04,130.18, TAKIP |  DIREKT
1764459031.02,119.99,0.00,61.93,0.00,0.00,0.00,0.00,2,52.44,-17.47,130.17,32.03,23.96,97.60,0,194.50,33.03,130.17, TAKIP |  DIREKT
1764459031.04,119.99,0.00,62.03,0.00,0.00,0.00,0.00,2,52.67,-17.43,130.17,32.03,24.02,97.36,0,194.51,33.02,130.17, TAKIP |  DIREKT
1764459031.06,119.99,0.00,62.14,0.00,0.00,0.00,0.00,2,53.33,-17.35,130.19,32.03,36.08,96.83,0,194.59,33.00,130.19, TAKIP |  DIREKT
1764459031.08,119.99,0.00,62.24,0.00,0.00,0.00,0.00,2,53.51,-17.31,130.18,32.03,35.98,96.62,0,194.59,32.99,130.18, TAKIP |  DIREKT
1764459031.10,119.99,0.00,62.35,0.00,0.00,0.00,0.00,2,53.63,-17.28,130.18,32.03,36.05,96.45,0,194.59,32.98,130.18, TAKIP |  DIREKT
1764459031.12,119.99,0.00,62.46,0.00,0.00,0.00,0.00,2,54.23,-17.19,130.18,32.03,47.59,95.95,0,194.65,32.96,130.18, TAKIP |  DIREKT
1764459031.15,119.99,0.00,62.57,0.00,0.00,0.00,0.00,2,54.40,-17.16,130.17,32.03,47.42,95.74,0,194.66,32.95,130.17, TAKIP |  DIREKT
1764459031.17,119.99,0.00,62.68,0.00,0.00,0.00,0.00,2,54.35,-17.14,130.14,32.03,36.69,95.67,0,194.63,32.94,130.14, TAKIP |  DIREKT
1764459031.19,119.99,0.00,62.79,0.00,0.00,0.00,0.00,2,54.55,-17.10,130.12,32.02,36.73,95.44,0,194.65,32.93,130.12, TAKIP |  DIREKT
1764459031.21,119.99,0.00,62.90,0.00,0.00,0.00,0.00,2,55.81,-16.91,130.14,32.02,66.85,94.48,0,194.76,32.89,130.14, TAKIP |  DIREKT
1764459031.23,119.99,0.00,63.01,0.00,0.00,0.00,0.00,2,56.03,-16.85,130.12,32.02,66.85,94.23,0,194.76,32.88,130.12, TAKIP |  DIREKT
1764459031.25,119.99,0.00,63.12,0.00,0.00,0.00,0.00,2,56.45,-16.79,130.14,32.02,66.92,93.86,0,194.80,32.86,130.14, TAKIP |  DIREKT
1764459031.27,119.99,0.00,63.23,0.00,0.00,0.00,0.00,2,56.43,-16.76,130.13,32.02,55.23,93.79,0,194.77,32.86,130.13, TAKIP |  DIREKT
1764459031.29,119.99,0.00,63.34,0.00,0.00,0.00,0.00,2,56.63,-16.72,130.14,32.02,54.63,93.57,0,194.78,32.85,130.14, TAKIP |  DIREKT
1764459031.31,119.99,0.00,63.47,0.00,0.00,0.00,0.00,2,57.42,-16.55,130.15,32.02,71.01,92.93,0,194.81,32.82,130.15, TAKIP |  DIREKT
1764459031.34,119.99,0.00,63.58,0.00,0.00,0.00,0.00,2,57.56,-16.50,130.15,32.02,70.90,92.74,0,194.80,32.81,130.15, TAKIP |  DIREKT
1764459031.36,119.99,0.00,63.70,0.00,0.00,0.00,0.00,2,57.66,-16.47,130.14,32.02,70.83,92.57,0,194.80,32.80,130.14, TAKIP |  DIREKT
1764459031.38,119.99,0.00,63.82,0.00,0.00,0.00,0.00,2,57.70,-16.43,130.12,32.02,65.34,92.44,0,194.77,32.79,130.12, TAKIP |  DIREKT
1764459031.40,119.99,0.00,63.93,0.00,0.00,0.00,0.00,2,57.90,-16.37,130.10,32.02,65.35,92.20,0,194.77,32.78,130.10, TAKIP |  DIREKT
1764459031.42,119.99,0.00,64.04,0.00,0.00,0.00,0.00,2,58.55,-16.18,130.10,32.02,78.21,91.65,0,194.76,32.76,130.10, TAKIP |  DIREKT
1764459031.44,119.99,0.00,64.16,0.00,0.00,0.00,0.00,2,58.67,-16.13,130.07,32.02,77.74,91.46,0,194.74,32.75,130.07, TAKIP |  DIREKT
1764459031.46,119.99,0.00,64.28,0.00,0.00,0.00,0.00,2,58.80,-16.09,130.06,32.02,77.53,91.27,0,194.73,32.74,130.06, TAKIP |  DIREKT
1764459031.48,119.99,0.00,64.40,0.00,0.00,0.00,0.00,2,58.08,-16.24,130.03,32.02,41.56,91.67,0,194.69,32.76,130.03, TAKIP |  DIREKT
1764459031.50,119.99,0.00,64.52,0.00,0.00,0.00,0.00,2,58.38,-16.15,130.03,32.01,41.62,91.37,0,194.69,32.74,130.03, TAKIP |  DIREKT
1764459031.52,119.99,0.00,64.64,0.00,0.00,0.00,0.00,2,58.25,-16.16,130.02,32.02,28.41,91.36,0,194.67,32.74,130.02, TAKIP |  DIREKT
1764459031.55,119.99,0.00,64.76,0.00,0.00,0.00,0.00,2,58.42,-16.10,130.01,32.01,28.41,91.14,0,194.66,32.73,130.01, TAKIP |  DIREKT
1764459031.57,119.99,0.00,64.88,0.00,0.00,0.00,0.00,2,59.32,-15.81,130.02,32.01,50.26,90.41,0,194.61,32.70,130.02, TAKIP |  DIREKT
1764459031.59,119.99,0.00,64.99,0.00,0.00,0.00,0.00,2,59.46,-15.75,130.00,32.01,50.24,90.20,0,194.58,32.69,130.00, TAKIP |  DIREKT
1764459031.61,119.99,0.00,65.12,0.00,0.00,0.00,0.00,2,59.58,-15.70,129.99,32.01,50.22,90.02,0,194.57,32.68,129.99, TAKIP |  DIREKT
1764459031.63,119.99,0.00,65.24,0.00,0.00,0.00,0.00,2,59.36,-15.75,129.95,32.01,36.01,90.06,0,194.56,32.68,129.95, TAKIP |  DIREKT
1764459031.65,119.99,0.00,65.37,0.00,0.00,0.00,0.00,2,59.51,-15.68,129.93,32.01,36.00,89.84,0,194.54,32.67,129.93, TAKIP |  DIREKT
1764459031.67,119.99,0.00,65.49,0.00,0.00,0.00,0.00,2,60.21,-15.40,129.90,32.01,51.41,89.21,0,194.45,32.64,129.90, TAKIP |  DIREKT
1764459031.69,119.99,0.00,65.62,0.00,0.00,0.00,0.00,2,60.62,-15.24,129.91,32.01,51.42,88.82,0,194.40,32.62,129.91, TAKIP |  DIREKT
1764459031.71,119.99,0.00,65.74,0.00,0.00,0.00,0.00,2,60.85,-15.15,129.91,32.01,51.39,88.57,0,194.37,32.61,129.91, TAKIP |  DIREKT
1764459031.73,119.99,0.00,65.87,0.00,0.00,0.00,0.00,2,61.07,-15.03,129.90,32.01,51.36,88.30,0,194.31,32.60,129.90, TAKIP |  DIREKT
1764459031.75,119.99,0.00,65.99,0.00,0.00,0.00,0.00,2,61.19,-14.97,129.89,32.01,51.36,88.12,0,194.28,32.59,129.89, TAKIP |  DIREKT
1764459031.78,119.99,0.00,66.12,0.00,0.00,0.00,0.00,2,61.45,-14.83,129.88,32.01,53.80,87.82,0,194.21,32.58,129.88, TAKIP |  DIREKT
1764459031.80,119.99,0.00,66.25,0.00,0.00,0.00,0.00,2,61.58,-14.75,129.86,32.01,53.91,87.61,0,194.17,32.57,129.86, TAKIP |  DIREKT
1764459031.82,119.99,0.00,66.38,0.00,0.00,0.00,0.00,2,61.67,-14.70,129.84,32.01,53.84,87.43,0,194.14,32.56,129.84, TAKIP |  DIREKT
1764459031.84,119.99,0.00,66.51,0.00,0.00,0.00,0.00,2,62.04,-14.49,129.82,32.01,61.48,87.04,0,194.04,32.54,129.82, TAKIP |  DIREKT
1764459031.86,119.99,0.00,66.64,0.00,0.00,0.00,0.00,2,62.18,-14.41,129.80,32.01,61.83,86.82,0,194.00,32.53,129.80, TAKIP |  DIREKT
1764459031.88,119.99,0.00,66.77,0.00,0.00,0.00,0.00,2,62.94,-14.00,129.77,32.01,81.08,86.14,0,193.79,32.50,129.77, TAKIP |  DIREKT
1764459031.90,119.99,0.00,66.90,0.00,0.00,0.00,0.00,2,63.08,-13.90,129.76,32.01,81.08,85.92,0,193.73,32.49,129.76, TAKIP |  DIREKT
1764459031.92,119.99,0.00,67.04,0.00,0.00,0.00,0.00,2,62.81,-13.99,129.75,32.01,57.39,86.01,0,193.75,32.50,129.75, TAKIP |  DIREKT
1764459031.94,119.99,0.00,67.17,0.00,0.00,0.00,0.00,2,63.07,-13.83,129.74,32.01,57.29,85.71,0,193.66,32.48,129.74, TAKIP |  DIREKT
1764459031.96,119.99,0.00,67.30,0.00,0.00,0.00,0.00,2,63.22,-13.74,129.73,32.01,57.28,85.49,0,193.61,32.47,129.73, TAKIP |  DIREKT
1764459031.99,119.99,0.00,67.44,0.00,0.00,0.00,0.00,2,63.62,-13.49,129.72,32.01,65.35,85.08,0,193.45,32.45,129.72, TAKIP |  DIREKT
1764459032.01,119.99,0.00,67.58,0.00,0.00,0.00,0.00,2,63.71,-13.41,129.70,32.01,65.35,84.89,0,193.40,32.44,129.70, TAKIP |  DIREKT
1764459032.03,119.99,0.00,67.72,0.00,0.00,0.00,0.00,2,63.07,-13.73,129.65,32.01,36.62,85.23,0,193.56,32.46,129.65, TAKIP |  DIREKT
1764459032.05,119.99,0.00,67.86,0.00,0.00,0.00,0.00,2,63.20,-13.64,129.62,32.00,36.67,85.01,0,193.50,32.45,129.62, TAKIP |  DIREKT
1764459032.07,119.99,0.00,68.00,0.00,0.00,0.00,0.00,2,63.27,-13.58,129.60,32.00,36.62,84.83,0,193.46,32.44,129.60, TAKIP |  DIREKT
1764459032.09,119.99,0.00,68.14,0.00,0.00,0.00,0.00,2,64.52,-12.77,129.59,32.00,76.80,83.76,0,192.97,32.39,129.59, TAKIP |  DIREKT
1764459032.11,119.99,0.00,68.28,0.00,0.00,0.00,0.00,2,64.64,-12.67,129.56,32.00,76.78,83.55,0,192.90,32.38,129.56, TAKIP |  DIREKT
1764459032.13,119.99,0.00,68.42,0.00,0.00,0.00,0.00,2,63.30,-13.47,129.49,32.00,23.83,84.41,0,193.37,32.42,129.49, TAKIP |  DIREKT
1764459032.15,119.99,0.00,68.56,0.00,0.00,0.00,0.00,2,63.66,-13.22,129.50,32.00,23.90,84.03,0,193.21,32.40,129.50, TAKIP |  DIREKT
1764459032.18,119.99,0.00,68.70,0.00,0.00,0.00,0.00,2,65.21,-12.12,129.51,32.00,72.53,82.74,0,192.47,32.35,129.51, TAKIP |  DIREKT
1764459032.20,119.99,0.00,68.84,0.00,0.00,0.00,0.00,2,65.39,-11.97,129.50,32.00,72.56,82.48,0,192.36,32.34,129.50, TAKIP |  DIREKT
1764459032.22,119.99,0.00,68.99,0.00,0.00,0.00,0.00,2,65.48,-11.88,129.48,32.00,72.55,82.29,0,192.30,32.33,129.48, TAKIP |  DIREKT
1764459032.24,119.99,0.00,69.14,0.00,0.00,0.00,0.00,2,65.30,-11.97,129.44,32.00,60.67,82.28,0,192.34,32.33,129.44, TAKIP |  DIREKT
1764459032.26,119.99,0.00,69.28,0.00,0.00,0.00,0.00,2,65.38,-11.88,129.42,32.00,60.63,82.10,0,192.28,32.32,129.42, TAKIP |  DIREKT
1764459032.28,119.99,0.00,69.42,0.00,0.00,0.00,0.00,2,64.78,-12.30,129.37,32.00,31.32,82.42,0,192.56,32.33,129.37, TAKIP |  DIREKT
1764459032.30,119.99,0.00,69.56,0.00,0.00,0.00,0.00,2,64.88,-12.21,129.33,32.00,31.28,82.21,0,192.49,32.32,129.33, TAKIP |  DIREKT
1764459032.32,119.99,0.00,69.70,0.00,0.00,0.00,0.00,2,64.95,-12.13,129.30,32.00,31.35,82.03,0,192.43,32.31,129.30, TAKIP |  DIREKT
1764459032.34,119.99,-0.00,69.85,0.00,0.00,0.00,0.00,2,66.31,-10.97,129.28,32.00,80.18,80.83,0,191.55,32.26,129.28, TAKIP |  DIREKT
1764459032.36,119.99,-0.00,70.00,0.00,0.00,0.00,0.00,2,66.40,-10.85,129.24,32.00,80.13,80.62,0,191.45,32.25,129.24, TAKIP |  DIREKT
1764459032.39,119.99,0.00,70.15,0.00,0.00,0.00,0.00,2,65.55,-11.54,129.22,32.00,32.02,81.15,0,191.97,32.27,129.22, TAKIP |  DIREKT
1764459032.41,119.99,-0.00,70.31,0.00,0.00,0.00,0.00,2,65.76,-11.33,129.21,32.00,31.87,80.86,0,191.80,32.26,129.21, TAKIP |  DIREKT
1764459032.43,119.99,-0.00,70.46,0.00,0.00,0.00,0.00,2,65.87,-11.22,129.20,32.00,31.89,80.65,0,191.72,32.25,129.20, TAKIP |  DIREKT
1764459032.45,119.99,-0.00,70.61,0.00,0.00,0.00,0.00,2,66.65,-10.47,129.18,32.00,60.35,79.91,0,191.10,32.22,129.18, TAKIP |  DIREKT
1764459032.47,119.99,-0.00,70.76,0.00,0.00,0.00,0.00,2,66.70,-10.39,129.16,32.00,60.19,79.74,0,191.03,32.21,129.16, TAKIP |  DIREKT
1764459032.49,119.99,0.00,70.90,0.00,0.00,0.00,0.00,2,66.86,-10.17,129.12,32.00,63.17,79.46,0,190.84,32.20,129.12, TAKIP |  DIREKT
1764459032.51,119.99,-0.00,71.06,0.00,0.00,0.00,0.00,2,66.94,-10.05,129.09,32.00,63.20,79.26,0,190.73,32.19,129.09, TAKIP |  DIREKT
1764459032.53,119.99,-0.00,71.21,0.00,0.00,0.00,0.00,2,66.88,-10.06,129.04,32.00,55.23,79.16,0,190.73,32.18,129.04, TAKIP |  DIREKT
1764459032.55,119.99,-0.00,71.37,0.00,0.00,0.00,0.00,2,66.97,-9.93,129.00,32.00,55.25,78.94,0,190.61,32.17,129.00, TAKIP |  DIREKT
1764459032.57,119.99,-0.00,71.52,0.00,0.00,0.00,0.00,2,67.04,-9.83,128.96,32.00,55.20,78.74,0,190.52,32.17,128.96, TAKIP |  DIREKT
1764459032.59,119.99,-0.00,71.68,0.00,0.00,0.00,0.00,2,66.48,-10.38,128.90,32.00,24.69,79.02,0,190.98,32.18,128.90, TAKIP |  DIREKT
1764459032.62,119.99,-0.00,71.84,0.00,0.00,0.00,0.00,2,66.76,-10.06,128.89,32.00,24.76,78.68,0,190.70,32.16,128.89, TAKIP |  DIREKT
1764459032.64,119.99,-0.00,72.00,0.00,0.00,0.00,0.00,2,67.42,-9.26,128.88,32.00,46.85,78.00,0,189.99,32.13,128.88, TAKIP |  DIREKT
1764459032.66,119.99,-0.00,72.15,0.00,0.00,0.00,0.00,2,67.52,-9.12,128.86,32.00,46.79,77.79,0,189.86,32.12,128.86, TAKIP |  DIREKT
1764459032.68,119.99,-0.00,72.31,0.00,0.00,0.00,0.00,2,67.58,-9.03,128.84,32.00,47.06,77.61,0,189.77,32.11,128.84, TAKIP |  DIREKT
1764459032.70,119.99,-0.00,72.47,0.00,0.00,0.00,0.00,2,67.66,-8.88,128.80,32.00,47.23,77.40,0,189.63,32.10,128.80, TAKIP |  DIREKT
1764459032.72,119.99,-0.00,72.63,0.00,0.00,0.00,0.00,2,67.70,-8.80,128.77,32.00,47.21,77.23,0,189.55,32.10,128.77, TAKIP |  DIREKT
1764459032.74,119.99,-0.00,72.79,0.00,0.00,0.00,0.00,2,68.32,-7.93,128.73,32.00,74.70,76.56,0,188.72,32.07,128.73, TAKIP |  DIREKT
1764459032.76,119.99,-0.00,72.95,0.00,0.00,0.00,0.00,2,68.39,-7.79,128.69,32.00,74.72,76.35,0,188.59,32.06,128.69, TAKIP |  DIREKT
1764459032.78,119.99,-0.00,73.12,0.00,0.00,0.00,0.00,2,68.42,-7.72,128.66,32.00,74.62,76.17,0,188.51,32.05,128.66, TAKIP |  DIREKT
1764459032.80,119.99,-0.00,73.29,0.00,0.00,0.00,0.00,2,68.54,-7.48,128.61,32.00,76.92,75.92,0,188.27,32.04,128.61, TAKIP |  DIREKT
1764459032.83,119.99,-0.00,73.45,0.00,0.00,0.00,0.00,2,68.57,-7.36,128.58,32.00,77.00,75.74,0,188.15,32.03,128.58, TAKIP |  DIREKT
1764459032.85,119.99,-0.00,73.62,0.00,0.00,0.00,0.00,2,68.07,-8.03,128.57,32.00,36.71,76.02,0,188.79,32.04,128.57, TAKIP |  DIREKT
1764459032.87,119.99,-0.00,73.78,0.00,0.00,0.00,0.00,2,68.22,-7.78,128.55,32.00,36.71,75.76,0,188.55,32.03,128.55, TAKIP |  DIREKT
1764459032.89,119.99,-0.00,73.94,0.00,0.00,0.00,0.00,2,68.57,-7.18,128.51,32.00,51.34,75.32,0,187.95,32.01,128.51, TAKIP |  DIREKT
1764459032.91,119.99,-0.00,74.11,0.00,0.00,0.00,0.00,2,68.63,-7.05,128.48,32.00,51.37,75.12,0,187.81,32.00,128.48, TAKIP |  DIREKT
1764459032.93,119.99,-0.00,74.27,0.00,0.00,0.00,0.00,2,68.66,-6.97,128.45,32.00,51.32,74.95,0,187.73,32.00,128.45, TAKIP |  DIREKT
1764459032.95,119.99,-0.00,74.44,0.00,0.00,0.00,0.00,2,68.86,-6.59,128.40,32.00,59.90,74.63,0,187.34,31.98,128.40, TAKIP |  DIREKT
1764459032.97,119.99,-0.00,74.61,0.00,0.00,0.00,0.00,2,68.90,-6.47,128.36,32.00,59.91,74.44,0,187.22,31.97,128.36, TAKIP |  DIREKT
1764459032.99,119.99,-0.00,74.78,0.00,0.00,0.00,0.00,2,68.53,-7.03,128.31,32.00,32.69,74.58,0,187.78,31.98,128.31, TAKIP |  DIREKT
1764459033.01,119.99,-0.00,74.95,0.00,0.00,0.00,0.00,2,68.59,-6.90,128.26,32.00,32.63,74.37,0,187.65,31.97,128.26, TAKIP |  DIREKT
1764459033.03,119.99,-0.00,75.13,0.00,0.00,0.00,0.00,2,68.63,-6.80,128.23,32.00,32.72,74.18,0,187.54,31.96,128.23, TAKIP |  DIREKT
1764459033.06,119.99,-0.00,75.31,0.00,0.00,0.00,0.00,2,68.81,-6.41,128.17,32.00,39.88,73.85,0,187.14,31.95,128.17, TAKIP |  DIREKT
1764459033.08,119.99,-0.00,75.48,0.00,0.00,0.00,0.00,2,68.86,-6.28,128.12,32.00,39.86,73.65,0,187.00,31.94,128.12, TAKIP |  DIREKT
1764459033.10,119.99,-0.00,75.66,0.00,0.00,0.00,0.00,2,69.36,-5.19,128.02,32.00,70.19,73.02,0,185.85,31.91,128.02, TAKIP |  DIREKT
1764459033.12,119.99,-0.00,75.84,0.00,0.00,0.00,0.00,2,69.53,-4.80,128.01,32.00,70.16,72.74,0,185.44,31.90,128.01, TAKIP |  DIREKT
1764459033.14,119.99,-0.00,76.01,0.00,0.00,0.00,0.00,2,69.63,-4.57,128.00,32.00,70.17,72.52,0,185.18,31.89,128.00, TAKIP |  DIREKT
1764459033.16,119.99,-0.00,76.20,0.00,0.00,0.00,0.00,2,69.26,-5.27,127.98,32.00,38.10,72.68,0,185.93,31.90,127.98, TAKIP |  DIREKT
1764459033.18,119.99,-0.00,76.38,0.00,0.00,0.00,0.00,2,69.32,-5.10,127.95,32.00,38.64,72.47,0,185.75,31.89,127.95, TAKIP |  DIREKT
1764459033.20,119.99,-0.00,76.55,0.00,0.00,0.00,0.00,2,69.76,-4.02,127.90,32.00,71.69,71.95,0,184.57,31.86,127.90, TAKIP |  DIREKT
1764459033.22,119.99,-0.00,76.74,0.00,0.00,0.00,0.00,2,69.76,-3.93,127.87,32.00,71.56,71.78,0,184.48,31.86,127.87, TAKIP |  DIREKT
1764459033.25,119.99,-0.00,76.94,0.00,0.00,0.00,0.00,2,69.85,-3.57,127.81,32.00,76.88,71.52,0,184.08,31.84,127.81, TAKIP |  DIREKT
1764459033.27,119.99,-0.00,77.12,0.00,0.00,0.00,0.00,2,69.88,-3.42,127.77,32.00,77.11,71.32,0,183.90,31.84,127.77, TAKIP |  DIREKT
1764459033.29,119.99,-0.00,77.30,0.00,0.00,0.00,0.00,2,69.89,-3.34,127.73,32.00,76.92,71.16,0,183.82,31.83,127.73, TAKIP |  DIREKT
1764459033.31,119.99,-0.00,77.48,0.00,0.00,0.00,0.00,2,69.37,-4.63,127.69,32.00,27.50,71.44,0,185.22,31.84,127.69, TAKIP |  DIREKT
1764459033.33,119.99,-0.00,77.67,0.00,0.00,0.00,0.00,2,69.41,-4.50,127.65,32.00,27.50,71.25,0,185.08,31.83,127.65, TAKIP |  DIREKT
1764459033.35,119.99,-0.00,77.85,0.00,0.00,0.00,0.00,2,69.97,-2.73,127.53,32.00,78.55,70.55,0,183.12,31.80,127.53, TAKIP |  DIREKT
1764459033.37,119.99,-0.00,78.05,0.00,0.00,0.00,0.00,2,70.09,-2.32,127.51,32.00,78.64,70.30,0,182.66,31.79,127.51, TAKIP |  DIREKT
1764459033.39,119.99,-0.00,78.23,0.00,0.00,0.00,0.00,2,70.16,-2.07,127.50,32.00,78.59,70.10,0,182.38,31.78,127.50, TAKIP |  DIREKT
1764459033.41,119.99,-0.00,78.43,0.00,0.00,0.00,0.00,2,70.14,-1.97,127.47,32.00,75.06,69.95,0,182.26,31.78,127.47, TAKIP |  DIREKT
1764459033.44,119.99,-0.00,78.62,0.00,0.00,0.00,0.00,2,70.15,-1.86,127.44,32.00,75.02,69.79,0,182.13,31.77,127.44, TAKIP |  DIREKT
1764459033.46,119.99,-0.00,78.81,0.00,0.00,0.00,0.00,2,69.96,-2.37,127.40,32.00,52.63,69.78,0,182.71,31.77,127.40, TAKIP |  DIREKT
1764459033.48,119.99,-0.00,79.00,0.00,0.00,0.00,0.00,2,69.96,-2.27,127.36,32.00,52.52,69.61,0,182.60,31.76,127.36, TAKIP |  DIREKT
1764459033.50,119.99,-0.00,79.20,0.00,0.00,0.00,0.00,2,69.88,-2.44,127.31,32.00,40.84,69.51,0,182.79,31.76,127.31, TAKIP |  DIREKT
1764459033.52,119.99,-0.00,79.40,0.00,0.00,0.00,0.00,2,69.89,-2.31,127.26,32.00,40.53,69.32,0,182.64,31.75,127.26, TAKIP |  DIREKT
1764459033.54,119.99,-0.00,79.59,0.00,0.00,0.00,0.00,2,69.90,-2.22,127.22,32.00,40.54,69.16,0,182.54,31.74,127.22, TAKIP |  DIREKT
1764459033.56,119.99,-0.00,79.79,0.00,0.00,0.00,0.00,2,69.95,-1.88,127.16,32.00,44.95,68.93,0,182.15,31.73,127.16, TAKIP |  DIREKT
1764459033.58,119.99,-0.00,79.98,0.00,0.00,0.00,0.00,2,69.96,-1.76,127.11,32.01,44.95,68.75,0,182.01,31.73,127.11, TAKIP |  DIREKT
1764459033.60,119.99,-0.00,80.18,0.00,0.00,0.00,0.00,2,70.07,-0.91,127.06,32.01,71.81,68.48,0,181.05,31.72,127.06, TAKIP |  DIREKT
1764459033.63,119.99,-0.00,80.38,0.00,0.00,0.00,0.00,2,70.15,-0.47,127.03,32.01,71.86,68.27,0,180.54,31.71,127.03, TAKIP |  DIREKT
1764459033.65,119.99,-0.00,80.58,0.00,0.00,0.00,0.00,2,70.19,-0.19,127.01,32.00,71.79,68.08,0,180.22,31.70,127.01, TAKIP |  DIREKT
