time,my_x,my_y,my_z,my_speed,my_roll,my_pitch,my_yaw,target_id,target_x,target_y,target_z,target_speed,target_gecikme_ms,target_dist,kilitlenme,cmd_yaw,cmd_speed,cmd_alt,mode_log
1764464670.67,191.10,-0.00,50.01,0.00,0.00,0.00,0.00,2,69.37,4.39,129.74,32.00,60.54,145.58,0,177.94,38.40,129.74, GAZ |  DIREKT
1764464670.69,191.10,0.00,50.01,0.00,0.00,0.00,0.00,2,69.41,4.13,129.74,32.00,63.61,145.54,0,178.06,38.39,129.74, GAZ |  DIREKT
1764464670.71,191.10,-0.00,50.02,0.00,0.00,0.00,0.00,2,69.19,4.46,129.74,32.00,64.94,145.73,0,177.90,38.43,129.74, GAZ |  DIREKT
1764464670.73,191.10,0.00,50.04,0.00,0.00,0.00,0.00,2,69.02,5.20,129.74,32.00,72.78,145.89,0,177.56,38.47,129.74, GAZ |  DIREKT
1764464670.75,191.10,0.00,50.05,0.00,0.00,0.00,0.00,2,68.93,5.69,129.75,32.00,72.79,145.97,0,177.33,38.49,129.75, GAZ |  DIREKT
1764464670.77,191.10,0.00,50.08,0.00,0.00,0.00,0.00,2,68.80,6.22,129.76,32.00,74.17,146.10,0,177.09,38.52,129.76, GAZ |  DIREKT
1764464670.79,191.10,0.00,50.11,0.00,0.00,0.00,0.00,2,68.69,6.73,129.76,32.00,76.82,146.20,0,176.85,38.55,129.76, GAZ |  DIREKT
1764464670.82,191.10,0.00,50.15,0.00,0.00,0.00,0.00,2,68.65,6.95,129.77,32.00,74.01,146.23,0,176.75,38.55,129.77, GAZ |  DIREKT
1764464670.84,191.10,-0.00,50.20,0.00,0.00,-0.00,360.00,2,68.96,5.70,129.79,32.00,29.29,145.89,0,177.33,38.47,129.79, GAZ |  DIREKT
1764464670.86,191.10,-0.00,50.26,0.00,0.00,-0.00,360.00,2,68.91,5.91,129.80,32.00,28.33,145.92,0,177.23,38.48,129.80, GAZ |  DIREKT
1764464670.88,191.10,-0.00,50.32,0.00,0.00,-0.00,0.00,2,68.54,7.13,129.82,32.00,59.05,146.25,0,176.67,38.56,129.82, GAZ |  DIREKT
1764464670.90,191.10,-0.00,50.41,0.00,0.00,0.00,0.00,2,68.49,7.25,129.83,32.00,58.35,146.26,0,176.61,38.56,129.83, GAZ |  DIREKT
1764464670.92,191.10,-0.00,50.50,0.00,0.00,0.00,0.00,2,68.40,7.44,129.85,32.00,57.84,146.31,0,176.53,38.58,129.85, GAZ |  DIREKT
1764464670.94,191.10,-0.00,50.61,0.00,0.00,0.00,0.00,2,68.33,7.61,129.87,32.00,57.14,146.33,0,176.45,38.58,129.87, GAZ |  DIREKT
1764464670.96,191.10,-0.00,50.74,0.00,0.00,0.00,0.00,2,68.29,7.70,129.87,32.00,57.42,146.30,0,176.41,38.57,129.87, GAZ |  DIREKT
1764464670.99,191.10,-0.00,50.87,0.00,0.00,0.00,0.00,2,67.83,8.88,129.87,32.00,80.42,146.68,0,175.88,38.67,129.87, GAZ |  DIREKT
1764464671.01,191.10,-0.00,51.04,0.00,0.00,0.00,0.00,2,67.70,9.20,129.88,32.00,80.86,146.73,0,175.74,38.68,129.88, GAZ |  DIREKT
1764464671.03,191.10,-0.00,51.22,0.00,0.00,0.00,0.00,2,68.06,8.13,129.89,32.00,38.75,146.27,0,176.22,38.56,129.89, GAZ |  DIREKT
1764464671.05,191.10,-0.00,51.43,0.00,0.00,0.00,360.00,2,68.04,8.12,129.90,32.00,35.68,146.17,0,176.22,38.54,129.90, GAZ |  DIREKT
1764464671.07,191.10,-0.00,51.64,0.00,0.00,0.00,360.00,2,68.00,8.18,129.90,32.00,35.89,146.10,0,176.20,38.52,129.90, GAZ |  DIREKT
1764464671.10,191.10,-0.00,51.96,0.00,0.00,0.00,360.00,2,67.90,8.38,129.91,32.00,35.36,146.03,0,176.11,38.51,129.91, GAZ |  DIREKT
1764464671.12,191.10,-0.00,52.24,0.00,0.00,0.00,360.00,2,67.86,8.44,129.92,32.00,34.64,145.93,0,176.08,38.48,129.92, GAZ |  DIREKT
1764464671.14,191.10,-0.00,52.53,0.00,0.00,0.00,360.00,2,67.68,8.77,129.93,32.00,38.86,145.95,0,175.93,38.48,129.93, GAZ |  DIREKT
1764464671.16,191.10,-0.00,52.84,0.00,0.00,0.00,360.00,2,67.65,8.80,129.94,32.00,37.26,145.82,0,175.92,38.45,129.94, GAZ |  DIREKT
1764464671.18,191.10,-0.00,53.19,0.00,0.00,0.00,360.00,2,66.88,10.34,129.96,32.00,82.67,146.39,0,175.24,38.60,129.96, GAZ |  DIREKT
1764464671.20,191.10,-0.00,53.55,0.00,0.00,0.00,360.00,2,66.81,10.41,129.97,32.00,80.98,146.27,0,175.21,38.57,129.97, GAZ |  DIREKT
1764464671.22,191.10,-0.00,53.95,0.00,0.00,0.00,360.00,2,67.29,9.32,129.95,32.00,40.06,145.57,0,175.70,38.39,129.95, GAZ |  DIREKT
1764464671.25,191.10,-0.00,54.39,0.00,0.00,0.00,360.00,2,67.11,9.64,129.96,32.00,40.06,145.52,0,175.56,38.38,129.96, GAZ |  DIREKT
1764464671.27,191.10,-0.00,54.84,0.00,0.00,0.00,360.00,2,66.91,10.00,129.96,32.00,40.94,145.48,0,175.40,38.37,129.96, GAZ |  DIREKT
1764464671.29,191.10,-0.00,55.33,0.00,0.00,0.00,360.00,2,66.66,10.40,129.97,32.00,50.65,145.48,0,175.22,38.37,129.97, GAZ |  DIREKT
1764464671.31,191.10,-0.00,55.83,0.00,0.00,0.00,360.00,2,66.62,10.44,129.97,32.00,49.91,145.26,0,175.21,38.31,129.97, GAZ |  DIREKT
1764464671.33,191.10,-0.00,56.37,0.00,0.00,0.00,360.00,2,66.82,10.03,129.98,32.00,29.16,144.79,0,175.39,38.20,129.98, GAZ |  DIREKT
1764464671.35,191.10,-0.00,56.99,0.00,0.00,0.00,360.00,2,66.75,10.11,129.98,32.00,28.97,144.54,0,175.35,38.13,129.98, GAZ |  DIREKT
1764464671.38,191.10,-0.00,57.61,0.00,0.00,0.00,360.00,2,66.69,10.19,129.99,32.00,28.87,144.29,0,175.32,38.07,129.99, GAZ |  DIREKT
1764464671.40,191.10,-0.00,58.29,0.00,0.00,0.00,360.00,2,65.99,11.27,130.00,32.00,61.43,144.64,0,174.85,38.16,130.00, GAZ |  DIREKT
1764464671.42,191.10,-0.00,59.19,0.00,0.00,0.00,360.00,2,65.87,11.43,130.00,32.00,61.31,144.32,0,174.78,38.08,130.00, GAZ |  DIREKT
1764464671.44,191.10,-0.00,60.00,0.00,0.00,0.00,360.00,2,65.60,11.75,130.00,32.00,69.37,144.18,0,174.65,38.04,130.00, GAZ |  DIREKT
1764464671.47,191.10,-0.00,60.81,0.00,0.00,0.00,360.00,2,65.55,11.77,130.00,32.00,67.56,143.83,0,174.64,37.96,130.00, GAZ |  DIREKT
1764464671.49,191.10,-0.00,61.62,0.00,0.00,0.00,360.00,2,66.25,10.70,130.01,32.00,21.90,142.76,0,175.10,37.69,130.01, GAZ |  DIREKT
1764464671.51,191.10,-0.00,62.48,0.00,0.00,0.00,360.00,2,66.18,10.76,130.02,32.00,21.79,142.42,0,175.08,37.60,130.02, GAZ |  DIREKT
1764464671.53,191.10,-0.00,63.35,0.00,0.00,0.00,360.00,2,65.94,11.09,130.02,32.00,22.58,142.25,0,174.94,37.56,130.02, GAZ |  DIREKT
1764464671.55,191.10,-0.00,64.27,0.00,0.00,0.00,360.00,2,65.29,11.93,130.03,32.00,45.35,142.45,0,174.58,37.61,130.03, GAZ |  DIREKT
1764464671.57,191.10,-0.00,65.32,0.00,0.00,0.00,360.00,2,65.11,12.16,130.02,32.00,46.66,142.16,0,174.49,37.54,130.02, GAZ |  DIREKT
1764464671.60,191.10,-0.00,66.52,0.00,0.00,0.00,360.00,2,65.29,11.88,130.02,32.00,25.80,141.43,0,174.61,37.36,130.02, GAZ |  DIREKT
1764464671.62,191.10,-0.00,67.63,0.00,0.00,0.00,360.00,2,65.35,11.77,130.01,32.00,24.62,140.87,0,174.65,37.21,130.01, GAZ |  DIREKT
1764464671.64,191.10,-0.00,68.72,0.00,0.00,0.00,360.00,2,64.58,12.65,130.01,32.00,54.73,141.15,0,168.65,37.29,130.01, GAZ |  ARKA HİZA
1764464671.66,191.10,-0.00,69.91,0.00,0.00,0.00,360.00,2,64.40,12.83,130.01,32.00,56.12,140.81,0,162.65,37.20,130.01, GAZ |  ARKA HİZA
1764464671.68,191.10,-0.00,71.19,0.00,0.00,0.00,360.00,2,64.27,12.95,130.00,32.00,57.81,140.40,0,156.65,37.10,130.00, GAZ |  ARKA HİZA
1764464671.70,191.10,-0.00,72.49,0.00,0.00,0.00,360.00,2,64.14,13.04,130.00,32.00,54.45,139.98,0,150.65,36.99,130.00, GAZ |  ARKA HİZA
1764464671.73,191.10,-0.00,73.87,0.00,0.00,0.00,360.00,2,64.12,13.03,129.99,32.00,54.29,139.44,0,144.65,36.86,129.99, GAZ |  ARKA HİZA
1764464671.75,191.10,-0.00,75.29,0.00,0.00,0.00,360.00,2,64.01,13.09,129.96,32.00,53.85,138.97,0,138.65,36.74,129.96, GAZ |  ARKA HİZA
1764464671.77,191.10,-0.00,76.74,0.00,0.00,0.00,360.00,2,64.07,12.98,129.97,32.00,53.70,138.34,0,133.62,36.58,129.97, GAZ |  ARKA HİZA
1764464671.79,191.10,-0.00,78.18,0.00,0.00,0.00,360.00,2,64.01,12.99,129.97,32.00,39.97,137.85,0,134.81,36.46,129.97, GAZ |  ARKA HİZA
1764464671.81,191.10,-0.00,79.67,0.00,0.00,0.00,360.00,2,63.72,13.27,129.96,32.00,39.52,137.59,0,135.12,36.40,129.96, GAZ |  ARKA HİZA
1764464671.83,191.10,-0.00,81.24,0.00,0.00,0.00,360.00,2,63.60,13.38,129.96,32.00,39.89,137.15,0,135.22,36.29,129.96, GAZ |  ARKA HİZA
1764464671.85,191.10,-0.00,82.76,0.00,0.00,0.00,360.00,2,63.65,13.29,129.96,32.00,31.14,136.56,0,136.29,36.14,129.96, GAZ |  ARKA HİZA
1764464671.87,191.10,-0.00,84.45,0.00,0.00,0.00,360.00,2,63.53,13.39,129.95,32.00,31.12,136.10,0,136.68,36.02,129.95, GAZ |  ARKA HİZA
1764464671.89,191.10,-0.00,86.20,0.00,0.00,0.00,360.00,2,62.33,14.44,129.94,32.00,73.68,136.76,0,137.84,36.19,129.94, GAZ |  ARKA HİZA
1764464671.92,191.10,-0.00,88.00,0.00,0.00,0.00,360.00,2,62.21,14.52,129.94,32.00,74.25,136.32,0,138.26,36.08,129.94, GAZ |  ARKA HİZA
1764464671.94,191.10,-0.00,89.95,0.00,0.00,0.00,360.00,2,62.77,13.97,129.92,32.00,39.55,135.13,0,139.45,35.78,129.92, GAZ |  ARKA HİZA
1764464671.96,191.10,-0.00,91.94,0.00,0.00,0.00,360.00,2,62.63,14.06,129.91,32.00,39.53,134.70,0,139.87,35.67,129.91, GAZ |  ARKA HİZA
1764464671.98,191.10,-0.00,93.93,0.00,0.00,0.00,360.00,2,62.60,14.07,129.90,32.00,38.07,134.17,0,140.02,35.54,129.90, GAZ |  ARKA HİZA
1764464672.00,191.10,-0.00,96.06,0.00,0.00,0.00,360.00,2,61.87,14.63,129.87,32.00,60.89,134.38,0,141.15,35.59,129.87, GAZ |  ARKA HİZA
1764464672.02,191.10,-0.00,98.17,0.00,0.00,0.00,360.00,2,61.86,14.60,129.87,32.00,61.21,133.87,0,141.64,35.46,129.87, GAZ |  ARKA HİZA
1764464672.05,191.10,-0.00,100.34,0.00,0.00,0.00,360.00,2,61.81,14.59,129.87,32.00,47.23,133.42,0,142.83,35.35,129.87, GAZ |  ARKA HİZA
1764464672.07,191.10,-0.00,102.48,0.00,0.00,0.00,360.00,2,61.54,14.78,129.86,32.00,47.86,133.25,0,143.14,35.31,129.86, GAZ |  ARKA HİZA
1764464672.09,191.10,-0.00,104.77,0.00,0.00,0.00,360.00,2,61.24,14.99,129.86,32.00,48.82,133.11,0,143.25,35.27,129.86, GAZ |  ARKA HİZA
1764464672.11,191.10,-0.00,107.20,0.00,0.00,0.00,360.00,2,60.86,15.22,129.85,32.00,63.04,133.06,0,144.28,35.26,129.85, GAZ |  ARKA HİZA
1764464672.13,191.10,-0.00,109.62,0.00,0.00,0.00,360.00,2,60.64,15.36,129.84,32.00,64.22,132.91,0,144.67,35.22,129.84, GAZ |  ARKA HİZA
1764464672.15,191.10,-0.00,112.11,0.00,0.00,0.00,360.00,2,60.35,15.50,129.82,32.00,64.39,132.85,0,145.82,35.21,129.82, GAZ |  ARKA HİZA
1764464672.17,191.10,-0.00,114.75,0.00,0.00,0.00,360.00,2,60.37,15.46,129.81,32.00,61.84,132.50,0,146.23,35.12,129.81, GAZ |  ARKA HİZA
1764464672.19,191.10,-0.00,117.58,0.00,0.00,0.00,360.00,2,60.43,15.37,129.79,32.00,51.86,132.14,0,147.43,35.03,129.79, GAZ |  ARKA HİZA
1764464672.22,191.10,-0.00,120.28,0.00,0.00,0.00,360.00,2,60.39,15.37,129.77,32.00,50.68,131.95,0,147.85,34.99,129.77, GAZ |  ARKA HİZA
1764464672.24,191.10,-0.00,123.14,0.00,0.00,0.00,360.00,2,60.28,15.41,129.76,32.00,50.90,131.89,0,148.01,34.97,129.76, GAZ |  ARKA HİZA
1764464672.26,191.10,-0.00,126.08,0.00,0.00,0.00,360.00,2,60.04,15.52,129.73,32.00,51.91,132.03,0,149.08,35.01,129.73, GAZ |  ARKA HİZA
1764464672.28,191.10,-0.00,129.08,0.00,0.00,0.00,360.00,2,59.87,15.60,129.73,32.00,52.07,132.15,0,149.50,35.04,129.73, GAZ |  ARKA HİZA
1764464672.30,191.10,-0.00,132.16,0.00,0.00,0.00,360.00,2,58.77,16.18,129.72,32.00,70.83,133.34,0,150.81,35.33,129.72, GAZ |  ARKA HİZA
1764464672.32,191.10,-0.00,135.33,0.00,0.00,0.00,360.00,2,58.60,16.25,129.71,32.00,69.86,133.61,0,151.16,35.40,129.71, GAZ |  ARKA HİZA
1764464672.35,191.10,-0.00,138.51,0.00,0.00,0.00,0.00,2,58.44,16.32,129.70,32.00,69.67,133.95,0,151.28,35.48,129.70, GAZ |  ARKA HİZA
1764464672.37,191.10,-0.00,141.73,0.00,0.00,0.00,0.00,2,58.97,16.00,129.68,32.00,45.79,133.63,0,152.30,35.41,129.68, GAZ |  ARKA HİZA
1764464672.39,191.10,-0.00,145.01,0.00,0.00,-0.00,0.00,2,58.93,16.00,129.67,32.00,46.15,134.02,0,152.67,35.50,129.67, GAZ |  ARKA HİZA
1764464672.41,191.10,-0.00,148.30,0.00,0.00,-0.00,0.00,2,58.08,16.38,129.64,32.00,67.05,135.32,0,153.78,35.83,129.64, GAZ |  ARKA HİZA
1764464672.43,191.10,-0.00,151.64,0.00,0.00,-0.00,0.00,2,58.02,16.38,129.62,32.00,66.89,135.88,0,154.17,35.97,129.62, GAZ |  ARKA HİZA
1764464672.45,191.10,-0.00,155.11,0.00,0.00,-0.00,0.00,2,57.90,16.43,129.60,32.00,66.50,136.61,0,154.32,36.15,129.60, GAZ |  ARKA HİZA
1764464672.47,191.10,-0.00,158.92,0.00,0.00,-0.00,0.00,2,57.49,16.57,129.58,32.00,72.16,137.79,0,155.33,36.45,129.58, GAZ |  ARKA HİZA
1764464672.49,191.10,-0.00,162.78,0.00,0.00,-0.00,0.00,2,57.37,16.60,129.56,32.00,71.92,138.79,0,155.69,36.70,129.56, GAZ |  ARKA HİZA
1764464672.52,191.10,-0.00,166.54,0.00,0.00,-0.00,0.00,2,57.21,16.62,129.51,32.00,65.43,139.90,0,156.85,36.97,129.51, GAZ |  ARKA HİZA
1764464672.54,191.10,-0.00,170.78,0.00,0.00,-0.00,0.00,2,57.32,16.54,129.50,32.00,64.05,140.97,0,157.31,37.24,129.50, GAZ |  ARKA HİZA
1764464672.56,191.10,-0.00,175.28,0.00,0.00,-0.00,0.00,2,56.64,16.78,129.49,32.00,69.95,143.03,0,158.41,37.76,129.49, GAZ |  ARKA HİZA
1764464672.58,191.10,-0.00,179.32,0.00,0.00,-0.00,0.00,2,56.31,16.89,129.48,32.00,70.48,144.70,0,158.69,38.17,129.48, GAZ |  ARKA HİZA
1764464672.60,191.10,-0.00,183.41,0.00,-14.12,47.99,328.89,2,56.15,16.94,129.46,32.00,69.96,146.31,0,158.79,38.58,129.46, GAZ |  ARKA HİZA
1764464672.62,191.10,0.00,183.41,0.00,-14.12,47.99,328.89,2,57.23,16.50,129.45,32.00,25.94,145.28,0,159.77,38.32,129.45, GAZ |  ARKA HİZA
1764464672.65,191.10,0.00,183.41,0.00,-14.12,47.99,328.89,2,57.10,16.54,129.43,32.00,26.80,145.40,0,160.11,38.35,129.43, GAZ |  ARKA HİZA
1764464672.67,191.09,0.00,183.41,0.00,-14.12,47.99,328.89,2,55.80,16.96,129.39,32.00,63.08,146.67,0,161.15,38.67,129.39, GAZ |  ARKA HİZA
1764464672.69,191.09,0.00,183.41,0.00,-14.12,47.99,328.89,2,55.58,17.01,129.37,32.00,64.88,146.88,0,161.52,38.72,129.37, GAZ |  ARKA HİZA
1764464672.71,191.09,0.00,183.42,0.00,-14.12,47.99,328.89,2,56.54,16.67,129.35,32.00,25.80,145.96,0,162.55,38.49,129.35, GAZ |  ARKA HİZA
1764464672.73,191.09,0.00,183.42,0.00,-14.12,47.99,328.89,2,56.31,16.73,129.32,32.00,26.80,146.19,0,162.93,38.55,129.32, GAZ |  ARKA HİZA
1764464672.75,191.09,0.00,183.42,0.00,-14.12,47.99,328.89,2,56.22,16.75,129.30,32.00,24.40,146.28,0,163.06,38.57,129.30, GAZ |  ARKA HİZA
1764464672.78,191.09,0.00,183.42,0.00,-14.12,47.99,328.89,2,55.14,17.04,129.25,32.00,53.23,147.33,0,164.00,38.83,129.25, GAZ |  ARKA HİZA
1764464672.80,191.08,0.00,183.42,0.00,-14.12,47.99,328.89,2,54.96,17.08,129.23,32.00,52.97,147.51,0,164.33,38.88,129.23, GAZ |  ARKA HİZA
1764464672.82,191.08,0.00,183.42,0.00,-14.12,47.99,328.89,2,55.05,17.02,129.22,32.00,42.64,147.41,0,165.44,38.85,129.22, GAZ |  ARKA HİZA
1764464672.85,191.08,0.00,183.42,0.00,-14.12,47.99,328.89,2,54.32,17.20,129.20,32.00,44.05,148.12,0,165.75,39.03,129.20, GAZ |  ARKA HİZA
1764464672.87,191.08,0.00,183.42,0.00,-14.12,47.99,328.89,2,53.08,17.47,129.17,32.00,73.07,149.30,0,166.71,39.32,129.17, GAZ |  ARKA HİZA
1764464672.89,191.08,0.01,183.42,0.00,-14.12,47.99,328.89,2,52.89,17.50,129.15,32.00,73.63,149.49,0,167.03,39.37,129.15, GAZ |  ARKA HİZA
1764464672.91,191.07,0.01,183.42,0.00,-14.12,47.99,328.89,2,52.86,17.49,129.13,32.00,72.90,149.52,0,167.14,39.38,129.13, GAZ |  ARKA HİZA
1764464672.93,191.07,0.01,183.42,0.00,-14.12,47.99,328.89,2,53.61,17.29,129.11,32.00,44.70,148.81,0,168.02,39.20,129.11, GAZ |  ARKA HİZA
1764464672.95,191.07,0.01,183.42,0.00,-14.12,47.99,328.89,2,53.37,17.33,129.08,32.00,44.78,149.04,0,168.34,39.26,129.08, GAZ |  ARKA HİZA
1764464672.98,191.07,0.01,183.43,0.00,-14.12,47.99,328.89,2,52.60,17.45,129.03,32.00,62.10,149.79,0,169.27,39.45,129.03, GAZ |  ARKA HİZA
1764464673.00,191.07,0.01,183.43,0.00,-14.12,47.99,328.89,2,52.49,17.45,129.00,32.00,63.81,149.90,0,169.60,39.47,129.00, GAZ |  ARKA HİZA
1764464673.02,191.07,0.01,183.43,0.00,-14.12,47.99,328.89,2,52.17,17.47,128.96,32.00,64.95,150.21,0,170.54,39.55,128.96, GAZ |  ARKA HİZA
1764464673.04,191.06,0.01,183.43,0.00,-14.12,47.99,328.89,2,51.94,17.49,128.92,32.00,64.24,150.44,0,170.87,39.61,128.92, GAZ |  ARKA HİZA
1764464673.06,191.06,0.01,183.43,0.00,-14.12,47.99,328.89,2,51.79,17.50,128.89,32.00,64.87,150.58,0,171.03,39.65,128.89, GAZ |  ARKA HİZA
1764464673.08,191.06,0.01,183.43,0.00,-14.12,47.99,328.89,2,51.61,17.49,128.88,32.00,57.46,150.76,0,171.92,39.69,128.88, GAZ |  ARKA HİZA
1764464673.10,191.06,0.01,183.43,0.00,-14.12,47.99,328.89,2,51.21,17.54,128.86,32.00,59.07,151.14,0,172.16,39.79,128.86, GAZ |  ARKA HİZA
1764464673.12,191.06,0.01,183.43,0.00,-14.12,47.99,328.89,2,51.36,17.49,128.84,32.00,43.06,151.00,0,173.02,39.75,128.84, GAZ |  ARKA HİZA
1764464673.15,191.06,0.01,183.43,0.00,-14.12,47.99,328.89,2,51.09,17.51,128.81,32.00,42.82,151.26,0,173.33,39.82,128.81, GAZ |  ARKA HİZA
1764464673.17,191.05,0.01,183.43,0.00,-14.12,47.99,328.89,2,51.21,17.48,128.77,32.00,37.05,151.16,0,174.17,39.79,128.77, GAZ |  ARKA HİZA
1764464673.19,191.05,0.01,183.43,0.00,-14.12,47.99,328.89,2,51.01,17.49,128.74,32.00,35.53,151.35,0,174.50,39.84,128.74, GAZ |  ARKA HİZA
1764464673.21,191.05,0.01,183.43,0.00,-14.12,47.99,328.89,2,51.01,17.48,128.71,32.00,35.53,151.37,0,174.60,39.84,128.71, GAZ |  ARKA HİZA
1764464673.23,191.05,0.01,183.44,0.00,-14.12,47.99,328.89,2,50.47,17.51,128.66,32.00,46.36,151.88,0,175.37,39.97,128.66, GAZ |  ARKA HİZA
1764464673.25,191.05,0.01,183.44,0.00,-14.12,47.99,328.89,2,50.11,17.52,128.63,32.00,47.62,152.23,0,175.67,40.06,128.63, GAZ |  ARKA HİZA
1764464673.28,191.05,0.01,183.44,0.00,-14.12,47.99,328.89,2,48.88,17.58,128.56,32.00,77.80,153.39,0,176.48,40.35,128.56, GAZ |  ARKA HİZA
1764464673.30,191.04,0.01,183.44,0.00,-14.12,47.99,328.89,2,48.66,17.57,128.52,32.00,78.14,153.61,0,176.78,40.41,128.52, GAZ |  ARKA HİZA
1764464673.32,191.04,0.01,183.44,0.00,-14.12,47.99,328.89,2,48.64,17.57,128.49,32.00,77.01,153.64,0,176.88,40.41,128.49, GAZ |  ARKA HİZA
1764464673.34,191.04,0.01,183.44,0.00,-14.12,47.99,328.89,2,48.35,17.55,128.44,32.00,76.66,153.92,0,177.62,40.48,128.44, GAZ |  ARKA HİZA
1764464673.36,191.04,0.01,183.44,0.00,-14.12,47.99,328.89,2,47.93,17.55,128.43,32.00,77.19,154.31,0,177.91,40.58,128.43, GAZ |  ARKA HİZA
1764464673.38,191.04,0.01,183.44,0.00,-14.12,47.99,328.89,2,49.21,17.49,128.43,32.00,23.45,153.13,0,178.78,40.28,128.43, GAZ |  ARKA HİZA
1764464673.41,191.04,0.01,183.44,0.00,-14.12,47.99,328.89,2,48.91,17.49,128.40,32.00,24.42,153.41,0,179.07,40.36,128.40, GAZ |  ARKA HİZA
1764464673.43,191.03,0.01,183.44,0.00,-14.12,47.99,328.89,2,48.74,17.49,128.38,32.00,24.14,153.57,0,179.18,40.40,128.38, GAZ |  ARKA HİZA
1764464673.45,191.03,0.01,183.44,0.00,-14.12,47.99,328.89,2,47.98,17.48,128.33,32.00,41.65,154.30,0,179.88,40.58,128.33, GAZ |  ARKA HİZA
1764464673.47,191.03,0.02,183.44,0.00,-14.12,47.99,328.89,2,47.57,17.47,128.29,32.00,43.54,154.69,0,180.15,40.67,128.29, GAZ |  ARKA HİZA
1764464673.49,191.03,0.02,183.44,0.00,-14.12,47.99,328.89,2,47.38,17.45,128.24,32.00,48.05,154.88,0,180.86,40.72,128.24, GAZ |  ARKA HİZA
1764464673.51,191.03,0.02,183.45,0.00,-14.12,47.99,328.89,2,46.92,17.43,128.20,32.00,49.19,155.32,0,181.16,40.83,128.20, GAZ |  ARKA HİZA
1764464673.53,191.03,0.02,183.45,0.00,-14.12,47.99,328.89,2,47.48,17.43,128.16,32.01,26.54,154.80,0,181.87,40.71,128.16, GAZ |  ARKA HİZA
1764464673.56,191.02,0.02,183.45,0.00,-14.12,47.99,328.89,2,47.13,17.41,128.11,32.00,26.75,155.14,0,182.15,40.79,128.11, GAZ |  ARKA HİZA
1764464673.58,191.02,0.02,183.45,0.00,-14.12,47.99,328.89,2,46.92,17.40,128.08,32.00,27.76,155.35,0,182.24,40.84,128.08, GAZ |  ARKA HİZA
1764464673.60,191.02,0.02,183.45,0.00,-14.12,47.99,328.89,2,45.36,17.31,128.01,32.01,70.39,156.81,0,182.86,41.21,128.01, GAZ |  ARKA HİZA
1764464673.62,191.02,0.02,183.45,0.00,-14.12,47.99,328.89,2,44.84,17.28,127.99,32.01,71.60,157.29,0,183.13,41.33,127.99, GAZ |  ARKA HİZA
1764464673.65,191.02,0.02,183.45,0.00,-14.12,47.99,328.89,2,44.49,17.23,127.96,32.01,67.78,157.63,0,183.83,41.41,127.96, GAZ |  ARKA HİZA
1764464673.67,191.01,0.02,183.45,0.00,-14.12,47.99,328.89,2,44.38,17.21,127.93,32.01,66.07,157.74,0,184.05,41.44,127.93, GAZ |  ARKA HİZA
1764464673.69,191.01,0.02,183.45,0.00,-14.12,47.99,328.89,2,43.63,17.12,127.87,32.01,81.34,158.44,0,184.72,41.62,127.87, GAZ |  ARKA HİZA
1764464673.71,191.01,0.02,183.45,0.00,-14.12,47.99,328.89,2,43.42,17.09,127.83,32.01,80.54,158.65,0,184.97,41.67,127.83, GAZ |  ARKA HİZA
1764464673.73,191.01,0.02,183.45,0.00,-14.12,47.99,328.89,2,43.19,17.06,127.80,32.01,81.16,158.87,0,185.06,41.72,127.80, GAZ |  ARKA HİZA
1764464673.76,191.01,0.02,183.45,0.00,-14.12,47.99,328.89,2,44.08,17.13,127.77,32.01,47.97,158.06,0,185.64,41.52,127.77, GAZ |  ARKA HİZA
1764464673.78,191.01,0.02,183.46,0.00,-14.12,47.99,328.89,2,43.86,17.10,127.73,32.01,48.94,158.27,0,185.86,41.57,127.73, GAZ |  ARKA HİZA
1764464673.81,191.00,0.02,183.46,0.00,-14.12,47.99,328.89,2,43.61,17.06,127.67,32.01,37.73,158.51,0,186.52,41.64,127.67, GAZ |  ARKA HİZA
1764464673.83,191.00,0.02,183.46,0.00,-14.12,47.99,328.89,2,43.59,17.05,127.63,32.01,34.27,158.54,0,186.72,41.64,127.63, GAZ |  ARKA HİZA
1764464673.85,191.00,0.02,183.46,0.00,-14.12,47.99,328.89,2,43.35,17.01,127.56,32.01,35.68,158.79,0,187.34,41.71,127.56, GAZ |  ARKA HİZA
1764464673.87,191.00,0.02,183.46,0.00,-14.12,47.99,328.89,2,43.06,16.96,127.52,32.01,34.59,159.06,0,187.53,41.78,127.52, GAZ |  ARKA HİZA
1764464673.89,191.00,0.02,183.46,0.00,-14.12,47.99,328.89,2,41.57,16.74,127.46,32.01,66.76,160.45,0,188.24,42.12,127.46, GAZ |  ARKA HİZA
1764464673.91,190.99,0.02,183.46,0.00,-14.12,47.99,328.89,2,41.15,16.67,127.43,32.01,66.96,160.84,0,188.43,42.22,127.43, GAZ |  ARKA HİZA
1764464673.94,190.99,0.02,183.46,0.00,-14.12,47.99,328.89,2,40.92,16.63,127.40,32.01,67.27,161.06,0,188.50,42.27,127.40, GAZ |  ARKA HİZA
1764464673.96,190.99,0.02,183.46,0.00,-14.12,47.99,328.89,2,41.37,16.68,127.37,32.01,46.81,160.66,0,189.02,42.17,127.37, GAZ |  ARKA HİZA
1764464673.98,190.99,0.02,183.46,0.00,-14.12,47.99,328.89,2,41.18,16.65,127.33,32.01,47.08,160.85,0,189.21,42.22,127.33, GAZ |  ARKA HİZA
1764464674.00,190.99,0.02,183.46,0.00,-14.12,47.99,328.89,2,40.53,16.53,127.26,32.01,51.30,161.46,0,189.80,42.37,127.26, GAZ |  ARKA HİZA
1764464674.02,190.99,0.02,183.47,0.00,-14.12,47.99,328.89,2,40.47,16.51,127.22,32.01,52.14,161.53,0,189.97,42.39,127.22, GAZ |  ARKA HİZA
1764464674.04,190.98,0.03,183.47,0.00,-14.12,47.99,328.89,2,40.43,16.50,127.19,32.01,49.89,161.57,0,190.04,42.40,127.19, GAZ |  ARKA HİZA
1764464674.06,190.98,0.03,183.47,0.00,-14.12,47.99,328.89,2,40.53,16.51,127.14,32.01,36.23,161.49,0,190.55,42.39,127.14, GAZ |  ARKA HİZA
1764464674.09,190.98,0.03,183.47,0.00,-14.12,47.99,328.89,2,40.23,16.45,127.09,32.01,37.04,161.78,0,190.74,42.46,127.09, GAZ |  ARKA HİZA
1764464674.11,190.98,0.03,183.47,0.00,-14.12,47.99,328.89,2,39.25,16.25,127.00,32.01,59.07,162.70,0,191.26,42.69,127.00, GAZ |  ARKA HİZA
1764464674.13,190.98,0.03,183.47,0.00,-14.12,47.99,328.89,2,38.68,16.12,126.94,32.01,60.48,163.24,0,191.48,42.82,126.94, GAZ |  ARKA HİZA
1764464674.16,190.97,0.03,183.47,0.00,-14.12,47.99,328.89,2,38.03,15.97,126.85,32.02,70.70,163.87,0,191.97,42.98,126.85, GAZ |  ARKA HİZA
1764464674.18,190.97,0.03,183.47,0.00,-14.12,47.99,328.89,2,37.65,15.88,126.83,32.02,70.97,164.22,0,192.15,43.07,126.83, GAZ |  ARKA HİZA
1764464674.20,190.97,0.03,183.47,0.00,-14.12,47.99,328.89,2,38.00,15.95,126.81,32.02,41.81,163.91,0,192.67,42.99,126.81, GAZ |  ARKA HİZA
1764464674.22,190.97,0.03,183.47,0.00,-14.12,47.99,328.89,2,37.83,15.90,126.78,32.02,38.97,164.07,0,192.84,43.03,126.78, GAZ |  ARKA HİZA
1764464674.24,190.97,0.03,183.47,0.00,-14.12,47.99,328.89,2,37.61,15.85,126.74,32.01,39.83,164.27,0,192.90,43.08,126.74, GAZ |  ARKA HİZA
1764464674.26,190.97,0.03,183.47,0.00,-14.12,47.99,328.89,2,37.07,15.72,126.68,32.02,50.54,164.79,0,193.33,43.21,126.68, GAZ |  ARKA HİZA
1764464674.29,190.96,0.03,183.48,0.00,-14.12,47.99,328.89,2,36.72,15.63,126.64,32.02,50.82,165.13,0,193.51,43.30,126.64, GAZ |  ARKA HİZA
1764464674.31,190.96,0.03,183.48,0.00,-14.12,47.99,328.89,2,35.74,15.37,126.55,32.02,73.88,166.05,0,193.96,43.53,126.55, GAZ |  ARKA HİZA
1764464674.33,190.96,0.03,183.48,0.00,-14.12,47.99,328.89,2,35.54,15.32,126.50,32.02,74.60,166.24,0,194.12,43.58,126.50, GAZ |  ARKA HİZA
1764464674.35,190.96,0.03,183.48,0.00,-14.12,47.99,328.89,2,34.76,15.10,126.42,32.02,84.63,166.98,0,194.59,43.76,126.42, GAZ |  ARKA HİZA
1764464674.37,190.96,0.03,183.48,0.00,-14.12,47.99,328.89,2,34.67,15.07,126.37,32.02,82.35,167.08,0,194.74,43.79,126.37, GAZ |  ARKA HİZA
1764464674.39,190.96,0.03,183.48,0.00,-14.12,47.99,328.89,2,34.54,15.03,126.33,32.02,81.68,167.21,0,194.80,43.82,126.33, GAZ |  ARKA HİZA
1764464674.42,190.95,0.03,183.48,0.00,-14.12,47.99,328.89,2,34.43,14.99,126.26,32.02,73.49,167.32,0,195.20,43.85,126.26, GAZ |  ARKA HİZA
1764464674.44,190.95,0.03,183.48,0.00,-14.12,47.99,328.89,2,34.04,14.88,126.21,32.02,74.98,167.70,0,195.36,43.95,126.21, GAZ |  ARKA HİZA
1764464674.46,190.95,0.03,183.48,0.00,-14.12,47.99,328.89,2,34.30,14.93,126.20,32.02,48.78,167.46,0,195.82,43.89,126.20, GAZ |  ARKA HİZA
1764464674.48,190.95,0.03,183.48,0.00,-14.12,47.99,328.89,2,33.86,14.80,126.16,32.02,48.39,167.87,0,195.95,43.99,126.16, GAZ |  ARKA HİZA
1764464674.50,190.95,0.03,183.48,0.00,-14.12,47.99,328.89,2,33.83,14.80,126.14,32.02,47.22,167.91,0,195.98,44.00,126.14, GAZ |  ARKA HİZA
1764464674.52,190.95,0.03,183.48,0.00,-14.12,47.99,328.89,2,33.87,14.80,126.10,32.02,32.81,167.88,0,196.37,43.99,126.10, GAZ |  ARKA HİZA
1764464674.55,190.94,0.03,183.48,0.00,-14.12,47.99,328.89,2,33.76,14.77,126.06,32.02,33.11,167.99,0,196.49,44.02,126.06, GAZ |  ARKA HİZA
1764464674.57,190.94,0.03,183.49,0.00,-14.12,47.99,328.89,2,33.38,14.65,126.00,32.02,30.35,168.36,0,196.90,44.11,126.00, GAZ |  ARKA HİZA
1764464674.59,190.94,0.03,183.49,0.00,-14.12,47.99,328.89,2,33.23,14.60,125.95,32.02,30.41,168.51,0,197.03,44.15,125.95, GAZ |  ARKA HİZA
1764464674.61,190.94,0.04,183.49,0.00,-14.12,47.99,328.89,2,32.62,14.41,125.87,32.02,37.24,169.09,0,197.42,44.30,125.87, GAZ |  ARKA HİZA
1764464674.63,190.94,0.04,183.49,0.00,-14.12,47.99,328.89,2,32.34,14.32,125.81,32.03,36.95,169.36,0,197.56,44.37,125.81, GAZ |  ARKA HİZA
1764464674.65,190.94,0.04,183.49,0.00,-14.12,47.99,328.89,2,32.05,14.23,125.77,32.03,37.63,169.64,0,197.61,44.44,125.77, GAZ |  ARKA HİZA
1764464674.67,190.93,0.04,183.49,0.00,-14.12,47.99,328.89,2,31.08,13.91,125.67,32.03,55.00,170.55,0,197.98,44.67,125.67, GAZ |  ARKA HİZA
1764464674.70,190.93,0.04,183.49,0.00,-14.12,47.99,328.89,2,30.90,13.85,125.62,32.03,54.56,170.73,0,198.10,44.71,125.62, GAZ |  ARKA HİZA
1764464674.72,190.93,0.04,183.49,0.00,-14.12,47.99,328.89,2,29.87,13.50,125.50,32.03,75.70,171.71,0,198.45,44.96,125.50, GAZ |  ARKA HİZA
1764464674.74,190.93,0.04,183.49,0.00,-14.12,47.99,328.89,2,29.27,13.29,125.46,32.03,77.26,172.27,0,198.59,45.10,125.46, GAZ |  ARKA HİZA
1764464674.76,190.93,0.04,183.49,0.00,-14.12,47.99,328.89,2,29.04,13.22,125.43,32.03,76.24,172.48,0,198.63,45.15,125.43, GAZ |  ARKA HİZA
1764464674.78,190.93,0.04,183.49,0.00,-14.12,47.99,328.89,2,28.94,13.17,125.39,32.03,69.05,172.59,0,198.94,45.18,125.39, GAZ |  ARKA HİZA
1764464674.80,190.92,0.04,183.49,0.00,-14.12,47.99,328.89,2,28.65,13.07,125.35,32.03,68.74,172.87,0,199.06,45.25,125.35, GAZ |  ARKA HİZA
1764464674.82,190.92,0.04,183.50,0.00,-14.12,47.99,328.89,2,28.90,13.15,125.32,32.03,48.24,172.65,0,199.39,45.19,125.32, GAZ |  ARKA HİZA
1764464674.84,190.92,0.04,183.50,0.00,-14.12,47.99,328.89,2,28.76,13.10,125.27,32.03,47.24,172.79,0,199.50,45.23,125.27, GAZ |  ARKA HİZA
1764464674.87,190.92,0.04,183.50,0.00,-14.12,47.99,328.89,2,27.46,12.62,125.16,32.03,75.65,174.01,0,199.83,45.53,125.16, GAZ |  ARKA HİZA
1764464674.89,190.92,0.04,183.50,0.00,-14.12,47.99,328.89,2,27.22,12.53,125.10,32.03,75.69,174.25,0,199.94,45.59,125.10, GAZ |  ARKA HİZA
1764464674.91,190.92,0.04,183.50,0.00,-14.12,47.99,328.89,2,26.83,12.39,125.05,32.03,77.73,174.63,0,199.99,45.69,125.05, GAZ |  ARKA HİZA
1764464674.93,190.91,0.04,183.50,0.00,-14.12,47.99,328.89,2,27.85,12.76,125.05,32.03,34.00,173.69,0,200.26,45.46,125.05, GAZ |  ARKA HİZA
1764464674.95,190.91,0.04,183.50,0.00,-14.12,47.99,328.89,2,27.58,12.66,124.99,32.03,34.50,173.95,0,200.36,45.52,124.99, GAZ |  ARKA HİZA
1764464674.97,190.91,0.04,183.50,0.00,-14.12,47.99,328.89,2,26.61,12.29,124.88,32.04,55.96,174.88,0,200.65,45.76,124.88, GAZ |  ARKA HİZA
1764464675.00,190.91,0.04,183.50,0.00,-14.12,47.99,328.89,2,26.11,12.10,124.81,32.04,57.70,175.35,0,200.77,45.87,124.81, GAZ |  ARKA HİZA
1764464675.02,190.91,0.04,183.50,0.00,-14.12,47.99,328.89,2,25.35,11.80,124.75,32.04,63.33,176.07,0,201.08,46.05,124.75, GAZ |  ARKA HİZA
1764464675.04,190.91,0.04,183.50,0.00,-14.12,47.99,328.89,2,25.10,11.70,124.72,32.04,61.82,176.31,0,201.15,46.11,124.72, GAZ |  ARKA HİZA
1764464675.06,190.90,0.04,183.50,0.00,-14.12,47.99,328.89,2,24.75,11.56,124.67,32.04,62.65,176.63,0,201.19,46.19,124.67, GAZ |  ARKA HİZA
1764464675.08,190.90,0.04,183.50,0.00,-14.12,47.99,328.89,2,24.30,11.38,124.61,32.04,69.02,177.07,0,201.43,46.30,124.61, GAZ |  ARKA HİZA
1764464675.10,190.90,0.04,183.51,0.00,-14.12,47.99,328.89,2,24.14,11.32,124.57,32.04,68.45,177.23,0,201.52,46.34,124.57, GAZ |  ARKA HİZA
1764464675.12,190.90,0.04,183.51,0.00,-14.12,47.99,328.89,2,24.16,11.32,124.52,32.04,50.81,177.23,0,201.79,46.34,124.52, GAZ |  ARKA HİZA
1764464675.15,190.90,0.04,183.51,0.00,-14.12,47.99,328.89,2,23.96,11.24,124.46,32.04,50.06,177.42,0,201.88,46.39,124.46, GAZ |  ARKA HİZA
1764464675.17,190.90,0.04,183.51,0.00,-14.12,47.99,328.89,2,23.59,11.09,124.41,32.04,51.91,177.78,0,201.93,46.48,124.41, GAZ |  ARKA HİZA
1764464675.19,190.89,0.05,183.51,0.00,-14.12,47.99,328.89,2,22.62,10.69,124.31,32.04,73.65,178.70,0,202.15,46.72,124.31, GAZ |  ARKA HİZA
1764464675.21,190.89,0.05,183.51,0.00,-14.12,47.99,328.89,2,22.32,10.57,124.25,32.04,73.88,178.99,0,202.23,46.79,124.25, GAZ |  ARKA HİZA
1764464675.23,190.89,0.05,183.51,0.00,-14.12,47.99,328.89,2,22.78,10.75,124.22,32.04,45.43,178.58,0,202.58,46.69,124.22, GAZ |  ARKA HİZA
1764464675.25,190.89,0.05,183.51,0.00,-14.12,47.99,328.89,2,22.02,10.43,124.16,32.04,47.34,179.29,0,202.61,46.86,124.16, GAZ |  ARKA HİZA
1764464675.28,190.89,0.05,183.51,0.00,-14.12,47.99,328.89,2,21.78,10.33,124.12,32.04,46.49,179.53,0,202.80,46.92,124.12, GAZ |  ARKA HİZA
1764464675.30,190.89,0.05,183.51,0.00,-14.12,47.99,328.89,2,21.60,10.25,124.08,32.04,45.91,179.70,0,202.86,46.97,124.08, GAZ |  ARKA HİZA
1764464675.32,190.88,0.05,183.51,0.00,-14.12,47.99,328.89,2,21.34,10.14,124.03,32.04,45.39,179.96,0,202.90,47.03,124.03, GAZ |  ARKA HİZA
1764464675.34,190.88,0.05,183.51,0.00,-14.12,47.99,328.89,2,21.06,10.02,123.97,32.04,42.30,180.23,0,203.10,47.10,123.97, GAZ |  ARKA HİZA
1764464675.36,190.88,0.05,183.52,0.00,-14.12,47.99,328.89,2,20.79,9.91,123.91,32.04,42.04,180.50,0,203.18,47.17,123.91, GAZ |  ARKA HİZA
1764464675.38,190.88,0.05,183.52,0.00,-14.12,47.99,328.89,2,19.51,9.35,123.78,32.04,69.76,181.72,0,203.39,47.47,123.78, GAZ |  ARKA HİZA
1764464675.40,190.88,0.05,183.52,0.00,-14.12,47.99,328.89,2,19.15,9.20,123.72,32.04,70.99,182.07,0,203.47,47.56,123.72, GAZ |  ARKA HİZA
1764464675.43,190.87,0.05,183.52,0.00,-14.12,47.99,328.89,2,18.89,9.08,123.67,32.04,70.46,182.32,0,203.50,47.62,123.67, GAZ |  ARKA HİZA
1764464675.45,190.87,0.05,183.52,0.00,-14.12,47.99,328.89,2,18.44,8.89,123.59,32.05,73.52,182.76,0,203.65,47.74,123.59, GAZ |  ARKA HİZA
1764464675.47,190.87,0.05,183.52,0.00,-14.12,47.99,328.89,2,18.31,8.82,123.54,32.05,73.55,182.90,0,203.73,47.77,123.54, GAZ |  ARKA HİZA
1764464675.49,190.87,0.05,183.52,0.00,-14.12,47.99,328.89,2,18.89,9.07,123.55,32.05,33.15,182.36,0,203.95,47.64,123.55, GAZ |  ARKA HİZA
1764464675.51,190.87,0.05,183.52,0.00,-14.12,47.99,328.89,2,18.58,8.94,123.51,32.05,32.04,182.66,0,204.00,47.71,123.51, GAZ |  ARKA HİZA
1764464675.54,190.87,0.05,183.52,0.00,-14.12,47.99,328.89,2,18.15,8.74,123.44,32.05,31.82,183.08,0,204.19,47.82,123.44, GAZ |  ARKA HİZA
1764464675.56,190.86,0.05,183.52,0.00,-14.12,47.99,328.89,2,17.83,8.60,123.39,32.05,31.41,183.39,0,204.25,47.89,123.39, GAZ |  ARKA HİZA
1764464675.58,190.86,0.05,183.52,0.00,-14.12,47.99,328.89,2,17.54,8.47,123.33,32.05,32.11,183.67,0,204.28,47.96,123.33, GAZ |  ARKA HİZA
1764464675.60,190.86,0.05,183.52,0.00,-14.12,47.99,328.89,2,17.46,8.44,123.28,32.05,22.56,183.76,0,204.43,47.99,123.28, GAZ |  ARKA HİZA
1764464675.62,190.86,0.05,183.52,0.00,-14.12,47.99,328.89,2,17.17,8.31,123.22,32.05,22.57,184.04,0,204.49,48.06,123.22, GAZ |  ARKA HİZA
1764464675.64,190.86,0.05,183.53,0.00,-14.12,47.99,328.89,2,15.36,7.48,123.05,32.05,67.09,185.78,0,204.66,48.49,123.05, GAZ |  ARKA HİZA
1764464675.66,190.86,0.05,183.53,0.00,-14.12,47.99,328.89,2,15.11,7.36,122.99,32.05,66.80,186.03,0,204.71,48.56,122.99, GAZ |  ARKA HİZA
1764464675.68,190.86,0.05,183.53,0.00,-14.12,47.99,328.89,2,14.32,6.99,122.87,32.05,79.40,186.79,0,204.88,48.75,122.87, GAZ |  ARKA HİZA
1764464675.71,190.85,0.05,183.53,0.00,-14.12,47.99,328.89,2,13.80,6.76,122.80,32.05,81.07,187.30,0,204.85,48.88,122.80, GAZ |  ARKA HİZA
1764464675.73,190.85,0.05,183.53,0.00,-14.12,47.99,328.89,2,13.54,6.64,122.77,32.05,80.55,187.55,0,204.89,48.94,122.77, GAZ |  ARKA HİZA
1764464675.75,190.85,0.05,183.53,0.00,-14.12,47.99,328.89,2,13.47,6.59,122.74,32.05,64.39,187.63,0,205.06,48.96,122.74, GAZ |  ARKA HİZA
1764464675.77,190.85,0.06,183.53,0.00,-14.12,47.99,328.89,2,13.21,6.48,122.69,32.05,64.19,187.87,0,205.11,49.02,122.69, GAZ |  ARKA HİZA
1764464675.79,190.85,0.06,183.53,0.00,-14.12,47.99,328.89,2,13.42,6.57,122.66,32.05,41.91,187.69,0,205.25,48.98,122.66, GAZ |  ARKA HİZA
1764464675.81,190.84,0.06,183.53,0.00,-14.12,47.99,328.89,2,13.05,6.40,122.60,32.05,42.61,188.05,0,205.30,49.07,122.60, GAZ |  ARKA HİZA
1764464675.84,190.84,0.06,183.53,0.00,-14.12,47.99,328.89,2,12.89,6.32,122.55,32.05,42.86,188.22,0,205.31,49.11,122.55, GAZ |  ARKA HİZA
1764464675.86,190.84,0.06,183.53,0.00,-14.12,47.99,328.89,2,11.81,5.81,122.43,32.06,67.63,189.26,0,205.42,49.37,122.43, GAZ |  ARKA HİZA
1764464675.88,190.84,0.06,183.53,0.00,-14.12,47.99,328.89,2,11.50,5.66,122.37,32.06,68.15,189.56,0,205.47,49.45,122.37, GAZ |  ARKA HİZA
1764464675.90,190.84,0.06,183.54,0.00,-14.12,47.99,328.89,2,10.83,5.34,122.27,32.06,76.64,190.23,0,205.58,49.61,122.27, GAZ |  ARKA HİZA
1764464675.92,190.84,0.06,183.54,0.00,-14.12,47.99,328.89,2,10.38,5.12,122.20,32.06,76.55,190.66,0,205.64,49.72,122.20, GAZ |  ARKA HİZA
1764464675.94,190.84,0.06,183.54,0.00,-14.12,47.99,328.89,2,10.22,5.04,122.12,32.06,68.13,190.83,0,205.73,49.77,122.12, GAZ |  ARKA HİZA
1764464675.96,190.83,0.06,183.54,0.00,-14.12,47.99,328.89,2,9.83,4.86,122.05,32.06,67.80,191.22,0,205.78,49.87,122.05, GAZ |  ARKA HİZA
1764464675.98,190.83,0.06,183.54,0.00,-14.12,47.99,328.89,2,9.76,4.82,122.02,32.06,68.75,191.30,0,205.77,49.89,122.02, GAZ |  ARKA HİZA
1764464676.01,190.83,0.06,183.54,0.00,-14.12,47.99,328.89,2,9.34,4.62,121.97,32.06,64.90,191.70,0,205.87,49.99,121.97, GAZ |  ARKA HİZA
1764464676.03,190.83,0.06,183.54,0.00,-14.12,47.99,328.89,2,8.93,4.41,121.92,32.06,65.12,192.10,0,205.90,50.09,121.92, GAZ |  ARKA HİZA
1764464676.05,190.83,0.06,183.54,0.00,-14.12,47.99,328.89,2,9.08,4.49,121.90,32.06,43.70,191.97,0,206.00,50.05,121.90, GAZ |  ARKA HİZA
1764464676.07,190.82,0.06,183.54,0.00,-14.12,47.99,328.89,2,8.76,4.33,121.84,32.06,43.34,192.29,0,206.03,50.13,121.84, GAZ |  ARKA HİZA
1764464676.09,190.82,0.06,183.54,0.00,-14.12,47.99,328.89,2,8.63,4.27,121.78,32.06,30.99,192.42,0,206.11,50.17,121.78, GAZ |  ARKA HİZA
1764464676.11,190.82,0.06,183.54,0.00,-14.12,47.99,328.89,2,8.21,4.06,121.71,32.06,31.28,192.84,0,206.15,50.27,121.71, GAZ |  ARKA HİZA
1764464676.14,190.82,0.06,183.54,0.00,-14.12,47.99,328.89,2,8.00,3.96,121.66,32.06,30.96,193.05,0,206.16,50.33,121.66, GAZ |  ARKA HİZA
1764464676.16,190.82,0.06,183.55,0.00,-14.12,47.99,328.89,2,6.22,3.08,121.48,32.06,72.47,194.78,0,206.24,50.76,121.48, GAZ |  ARKA HİZA
1764464676.18,190.82,0.06,183.55,0.00,-14.12,47.99,328.89,2,6.14,3.05,121.44,32.07,70.91,194.87,0,206.24,50.78,121.44, GAZ |  ARKA HİZA
1764464676.20,190.81,0.06,183.55,0.00,-14.12,47.99,328.89,2,6.96,3.45,121.44,32.07,31.94,194.09,0,206.29,50.59,121.44, GAZ |  ARKA HİZA
1764464676.22,190.81,0.06,183.55,0.00,-14.12,47.99,328.89,2,6.52,3.24,121.37,32.07,34.02,194.52,0,206.34,50.70,121.37, GAZ |  ARKA HİZA
1764464676.24,190.81,0.06,183.55,0.00,-14.12,47.99,328.89,2,4.74,2.35,121.22,32.07,74.83,196.24,0,206.39,51.13,121.22, GAZ |  ARKA HİZA
1764464676.27,190.81,0.06,183.55,0.00,-14.12,47.99,328.89,2,4.41,2.19,121.17,32.07,73.94,196.57,0,206.40,51.21,121.17, GAZ |  ARKA HİZA
1764464676.29,190.81,0.06,183.55,0.00,-14.12,47.99,328.89,2,4.22,2.10,121.13,32.07,73.13,196.76,0,206.40,51.26,121.13, GAZ |  ARKA HİZA
1764464676.31,190.81,0.06,183.55,0.00,-14.12,47.99,328.89,2,3.92,1.95,121.07,32.07,63.83,197.06,0,206.47,51.33,121.07, GAZ |  ARKA HİZA
1764464676.33,190.80,0.06,183.55,0.00,-14.12,47.99,328.89,2,3.73,1.85,121.02,32.07,61.58,197.25,0,206.48,51.38,121.02, GAZ |  ARKA HİZA
1764464676.35,190.80,0.07,183.55,0.00,-14.12,47.99,328.89,2,2.95,1.46,120.91,32.07,78.44,198.03,0,206.50,51.58,120.91, GAZ |  ARKA HİZA
1764464676.37,190.80,0.07,183.55,0.00,-14.12,47.99,328.89,2,2.48,1.23,120.84,32.07,79.49,198.49,0,206.53,51.69,120.84, GAZ |  ARKA HİZA
1764464676.40,190.80,0.07,183.55,0.00,-14.12,47.99,328.89,2,2.16,1.07,120.78,32.07,81.05,198.81,0,206.54,51.77,120.78, GAZ |  ARKA HİZA
1764464676.42,190.80,0.07,183.55,0.00,-14.12,47.99,328.89,2,3.29,1.64,120.82,32.07,25.29,197.73,0,206.57,51.50,120.82, GAZ |  ARKA HİZA
1764464676.44,190.80,0.07,183.56,0.00,-14.12,47.99,328.89,2,3.08,1.53,120.76,32.07,23.56,197.95,0,206.57,51.56,120.76, GAZ |  ARKA HİZA
1764464676.46,190.79,0.07,183.56,0.00,-14.12,47.99,328.89,2,1.48,0.73,120.60,32.07,70.00,199.51,0,206.57,51.95,120.60, GAZ |  ARKA HİZA
1764464676.48,190.79,0.07,183.56,0.00,-14.12,47.99,328.89,2,0.91,0.44,120.54,32.07,70.88,200.07,0,206.59,52.09,120.54, GAZ |  ARKA HİZA
1764464676.50,190.79,0.07,183.56,0.00,-14.12,47.99,328.89,2,1.60,0.79,120.57,32.07,31.16,199.41,0,206.61,51.93,120.57, GAZ |  ARKA HİZA
1764464676.52,190.79,0.07,183.56,0.00,-14.12,47.99,328.89,2,1.17,0.58,120.50,32.07,31.27,199.83,0,206.62,52.03,120.50, GAZ |  ARKA HİZA
1764464676.55,190.79,0.07,183.56,0.00,-14.12,47.99,328.89,2,0.91,0.45,120.45,32.07,31.87,200.09,0,206.62,52.10,120.45, GAZ |  ARKA HİZA
1764464676.57,190.79,0.07,183.56,0.00,-14.12,47.99,328.89,2,0.46,0.22,120.37,32.07,31.16,200.54,0,206.64,52.21,120.37, GAZ |  ARKA HİZA
1764464676.59,190.78,0.07,183.56,0.00,-14.12,47.99,328.89,2,0.17,0.08,120.31,32.07,31.83,200.83,0,206.64,52.28,120.31, GAZ |  ARKA HİZA
1764464676.61,190.78,0.07,183.56,0.00,-14.12,47.99,328.89,2,-0.73,-0.37,120.19,32.08,50.88,201.72,0,206.62,52.51,120.19, GAZ |  ARKA HİZA
1764464676.63,190.78,0.07,183.56,0.00,-14.12,47.99,328.89,2,-1.20,-0.61,120.12,32.08,54.13,202.19,0,206.63,52.62,120.12, GAZ |  ARKA HİZA
1764464676.65,190.78,0.07,183.56,0.00,-14.12,47.99,328.89,2,-2.23,-1.13,119.98,32.08,69.57,203.22,0,206.64,52.88,119.98, GAZ |  ARKA HİZA
1764464676.68,190.78,0.07,183.56,0.00,-14.12,47.99,328.89,2,-2.41,-1.21,119.92,32.08,69.20,203.41,0,206.60,52.93,119.92, GAZ |  ARKA HİZA
1764464676.70,190.78,0.07,183.57,0.00,-14.12,47.99,328.89,2,-2.58,-1.29,119.88,32.08,68.20,203.58,0,206.55,52.97,119.88, GAZ |  ARKA HİZA
1764464676.72,190.77,0.07,183.57,0.00,-14.12,47.99,328.89,2,-3.17,-1.59,119.82,32.08,71.84,204.16,0,206.56,53.12,119.82, GAZ |  ARKA HİZA
1764464676.75,190.77,0.07,183.57,0.00,-14.12,47.99,328.89,2,-3.91,-1.96,119.74,32.08,74.23,204.89,0,206.61,53.30,119.74, GAZ |  ARKA HİZA
1764464676.77,190.77,0.07,183.57,0.00,-14.12,47.99,328.89,2,-3.70,-1.86,119.72,32.08,49.50,204.69,0,206.58,53.25,119.72, GAZ |  ARKA HİZA
1764464676.79,190.77,0.07,183.57,0.00,-14.12,47.99,328.89,2,-3.85,-1.93,119.67,32.08,49.37,204.85,0,206.55,53.29,119.67, GAZ |  ARKA HİZA
1764464676.81,190.77,0.07,183.57,0.00,-14.12,47.99,328.89,2,-5.20,-2.60,119.52,32.08,79.63,206.18,0,206.53,53.63,119.52, GAZ |  ARKA HİZA
1764464676.83,190.77,0.07,183.57,0.00,-14.12,47.99,328.89,2,-5.48,-2.74,119.46,32.08,79.63,206.47,0,206.51,53.70,119.46, GAZ |  ARKA HİZA
1764464676.85,190.76,0.07,183.57,0.00,-14.12,47.99,328.89,2,-5.84,-2.92,119.39,32.08,80.57,206.83,0,206.52,53.79,119.39, GAZ |  ARKA HİZA
1764464676.88,190.76,0.07,183.57,0.00,-14.12,47.99,328.89,2,-4.90,-2.45,119.42,32.08,32.04,205.92,0,206.48,53.56,119.42, GAZ |  ARKA HİZA
1764464676.90,190.76,0.07,183.57,0.00,-14.12,47.99,328.89,2,-5.10,-2.55,119.37,32.08,31.02,206.13,0,206.46,53.62,119.37, GAZ |  ARKA HİZA
1764464676.92,190.76,0.07,183.57,0.00,-14.12,47.99,328.89,2,-5.64,-2.82,119.27,32.09,34.58,206.68,0,206.40,53.76,119.27, GAZ |  ARKA HİZA
1764464676.94,190.76,0.08,183.58,0.00,-14.12,47.99,328.89,2,-6.10,-3.04,119.21,32.08,35.18,207.13,0,206.37,53.87,119.21, GAZ |  ARKA HİZA
1764464676.97,190.75,0.08,183.58,0.00,-14.12,47.99,328.89,2,-6.92,-3.45,119.12,32.09,47.21,207.95,0,206.30,54.07,119.12, GAZ |  ARKA HİZA
1764464676.99,190.75,0.08,183.58,0.00,-14.12,47.99,328.89,2,-7.40,-3.68,119.06,32.08,47.71,208.43,0,206.30,54.19,119.06, GAZ |  ARKA HİZA
1764464677.01,190.75,0.08,183.58,0.00,-14.12,47.99,328.89,4,9.49,-62.29,101.64,33.00,48.79,208.47,0,200.30,55.12,101.64, GAZ |  DIREKT
1764464677.03,190.75,0.08,183.58,0.00,-14.12,47.99,328.89,4,9.96,-62.21,101.77,33.00,48.63,207.98,0,199.01,55.00,101.77, GAZ |  DIREKT
1764464677.05,190.75,0.08,183.58,0.00,-14.12,47.99,328.89,4,10.30,-62.16,101.90,33.00,49.38,207.62,0,199.03,54.91,101.90, GAZ |  DIREKT
1764464677.07,190.75,0.08,183.58,0.00,-14.12,47.99,328.89,4,11.33,-62.00,102.09,33.00,64.40,206.60,0,199.09,54.65,102.09, GAZ |  DIREKT
1764464677.09,190.74,0.08,183.58,0.00,-14.12,47.99,328.89,4,11.67,-61.94,102.25,33.00,64.66,206.23,0,199.10,54.56,102.25, GAZ |  DIREKT
1764464677.12,190.74,0.08,183.58,0.00,-14.12,47.99,328.89,4,12.80,-61.73,102.49,33.00,76.89,205.09,0,199.16,54.28,102.49, GAZ |  DIREKT
1764464677.14,190.74,0.08,183.58,0.00,-14.12,47.99,328.89,4,12.90,-61.70,102.67,33.01,75.88,204.92,0,199.16,54.24,102.67, GAZ |  DIREKT
1764464677.16,190.74,0.08,183.58,0.00,-14.12,47.99,328.89,4,13.22,-61.64,102.82,33.01,76.05,204.56,0,199.17,54.15,102.82, GAZ |  DIREKT
1764464677.18,190.74,0.08,183.58,0.00,-14.12,47.99,328.89,4,13.08,-61.62,103.04,33.02,54.42,204.59,0,199.15,54.16,103.04, GAZ |  DIREKT
1764464677.20,190.74,0.08,183.59,0.00,-14.12,47.99,328.89,4,13.27,-61.59,103.14,33.02,54.29,204.38,0,199.16,54.11,103.14, GAZ |  DIREKT
1764464677.22,190.73,0.08,183.59,0.00,-14.12,47.99,328.89,4,13.21,-61.58,103.19,33.02,31.02,204.40,0,199.15,54.12,103.19, GAZ |  DIREKT
1764464677.25,190.73,0.08,183.59,0.00,-14.12,47.99,328.89,4,13.75,-61.46,103.28,33.02,30.09,203.86,0,199.17,53.98,103.28, GAZ |  DIREKT
1764464677.27,190.73,0.08,183.59,0.00,-14.12,47.99,328.89,4,14.81,-61.23,103.45,33.02,46.31,202.80,0,199.21,53.72,103.45, GAZ |  DIREKT
1764464677.29,190.73,0.08,183.59,0.00,-14.12,47.99,328.89,4,15.25,-61.12,103.60,33.02,45.81,202.32,0,199.23,53.60,103.60, GAZ |  DIREKT
1764464677.31,190.73,0.08,183.59,0.00,-14.12,47.99,328.89,4,15.59,-61.04,103.73,33.02,46.19,201.96,0,199.24,53.51,103.73, GAZ |  DIREKT
1764464677.33,190.73,0.08,183.59,0.00,-14.12,47.99,328.89,4,16.58,-60.79,103.94,33.02,60.73,200.94,0,199.27,53.25,103.94, GAZ |  DIREKT
1764464677.35,190.72,0.08,183.59,0.00,-14.12,47.99,328.89,4,16.96,-60.69,104.10,33.02,60.49,200.52,0,199.28,53.15,104.10, GAZ |  DIREKT
1764464677.37,190.72,0.08,183.59,0.00,-14.12,47.99,328.89,4,17.54,-60.52,104.33,33.03,61.67,199.86,0,199.29,52.99,104.33, GAZ |  DIREKT
1764464677.39,190.72,0.08,183.59,0.00,-14.12,47.99,328.89,4,18.02,-60.38,104.52,33.03,61.77,199.33,0,199.30,52.86,104.52, GAZ |  DIREKT
1764464677.42,190.72,0.08,183.59,0.00,-14.12,47.99,328.89,4,19.17,-60.05,104.82,33.04,78.38,198.12,0,199.32,52.57,104.82, GAZ |  DIREKT
1764464677.44,190.72,0.08,183.59,0.00,-14.12,47.99,328.89,4,19.65,-59.91,104.97,33.04,79.25,197.60,0,199.33,52.44,104.97, GAZ |  DIREKT
1764464677.46,190.72,0.08,183.60,0.00,-14.12,47.99,328.89,4,20.15,-59.77,105.03,33.04,77.92,197.10,0,199.34,52.32,105.03, GAZ |  DIREKT
1764464677.49,190.71,0.08,183.60,0.00,-14.12,47.99,328.89,4,19.95,-59.79,105.10,33.04,50.12,197.25,0,199.32,52.35,105.10, GAZ |  DIREKT
1764464677.51,190.71,0.09,183.60,0.00,-14.12,47.99,328.89,4,20.20,-59.70,105.21,33.04,48.59,196.96,0,199.32,52.28,105.21, GAZ |  DIREKT
1764464677.53,190.71,0.09,183.60,0.00,-14.12,47.99,328.89,4,21.18,-59.38,105.41,33.04,68.18,195.94,0,199.33,52.03,105.41, GAZ |  DIREKT
1764464677.55,190.71,0.09,183.60,0.00,-14.12,47.99,328.89,4,21.58,-59.23,105.56,33.04,67.18,195.48,0,199.33,51.91,105.56, GAZ |  DIREKT
1764464677.57,190.71,0.09,183.60,0.00,-14.12,47.99,328.89,4,21.53,-59.21,105.73,33.05,52.27,195.45,0,199.32,51.91,105.73, GAZ |  DIREKT
1764464677.60,190.71,0.09,183.60,0.00,-14.12,47.99,328.89,4,22.04,-59.03,105.92,33.05,52.29,194.88,0,199.32,51.77,105.92, GAZ |  DIREKT
1764464677.62,190.70,0.09,183.60,0.00,-14.12,47.99,328.89,4,22.46,-58.88,106.07,33.05,53.21,194.40,0,199.31,51.65,106.07, GAZ |  DIREKT
1764464677.64,190.70,0.09,183.60,0.00,-14.12,47.99,328.89,4,22.87,-58.71,106.29,33.06,56.05,193.92,0,199.31,51.54,106.29, GAZ |  DIREKT
1764464677.66,190.70,0.09,183.60,0.00,-14.12,47.99,328.89,4,23.30,-58.55,106.46,33.07,56.80,193.42,0,199.30,51.42,106.46, GAZ |  DIREKT
1764464677.68,190.70,0.09,183.60,0.00,-14.12,47.99,328.89,4,24.53,-58.06,106.77,33.08,77.70,192.08,0,199.29,51.10,106.77, GAZ |  DIREKT
1764464677.71,190.70,0.09,183.60,0.00,-14.12,47.99,328.89,4,24.82,-57.96,106.90,33.08,78.37,191.75,0,199.29,51.02,106.90, GAZ |  DIREKT
1764464677.73,190.69,0.09,183.61,0.00,-14.12,47.99,328.89,4,23.88,-58.27,106.87,33.08,28.96,192.67,0,199.28,51.25,106.87, GAZ |  DIREKT
1764464677.75,190.69,0.09,183.61,0.00,-14.12,47.99,328.89,4,24.39,-58.07,106.98,33.08,28.37,192.12,0,199.27,51.11,106.98, GAZ |  DIREKT
1764464677.77,190.69,0.09,183.61,0.00,-14.12,47.99,328.89,4,24.75,-57.92,107.09,33.08,28.93,191.72,0,199.27,51.01,107.09, GAZ |  DIREKT
1764464677.79,190.69,0.09,183.61,0.00,-14.12,47.99,328.89,4,25.58,-57.56,107.28,33.08,39.07,190.81,0,199.25,50.79,107.28, GAZ |  DIREKT
1764464677.81,190.69,0.09,183.61,0.00,-14.12,47.99,328.89,4,26.03,-57.37,107.43,33.08,38.60,190.31,0,199.24,50.66,107.43, GAZ |  DIREKT
1764464677.83,190.69,0.09,183.61,0.00,-14.12,47.99,328.89,4,27.04,-56.92,107.67,33.09,56.94,189.20,0,199.21,50.39,107.67, GAZ |  DIREKT
1764464677.86,190.69,0.09,183.61,0.00,-14.12,47.99,328.89,4,27.23,-56.82,107.82,33.09,55.41,188.95,0,199.20,50.33,107.82, GAZ |  DIREKT
1764464677.88,190.68,0.09,183.61,0.00,-14.12,47.99,328.89,4,27.93,-56.48,108.06,33.10,55.57,188.14,0,199.17,50.14,108.06, GAZ |  DIREKT
1764464677.90,190.68,0.09,183.61,0.00,-14.12,47.99,328.89,4,28.20,-56.34,108.24,33.11,53.54,187.80,0,199.15,50.06,108.24, GAZ |  DIREKT
1764464677.92,190.68,0.09,183.61,0.00,-14.12,47.99,328.89,4,28.54,-56.17,108.38,33.11,54.17,187.39,0,199.14,49.96,108.38, GAZ |  DIREKT
1764464677.94,190.68,0.09,183.61,0.00,-14.12,47.99,328.89,4,28.33,-56.25,108.50,33.12,31.97,187.55,0,199.14,50.00,108.50, GAZ |  DIREKT
1764464677.96,190.68,0.09,183.62,0.00,-14.12,47.99,328.89,4,28.60,-56.12,108.56,33.12,30.88,187.25,0,199.13,49.93,108.56, GAZ |  DIREKT
1764464677.99,190.68,0.09,183.62,0.00,-14.12,47.99,328.89,4,29.62,-55.60,108.73,33.12,46.42,186.14,0,199.08,49.65,108.73, GAZ |  DIREKT
1764464678.01,190.67,0.09,183.62,0.00,-14.12,47.99,328.89,4,30.05,-55.38,108.86,33.12,46.07,185.65,0,199.05,49.53,108.86, GAZ |  DIREKT
1764464678.03,190.67,0.09,183.62,0.00,-14.12,47.99,328.89,4,30.42,-55.18,108.99,33.12,47.03,185.21,0,199.03,49.42,108.99, GAZ |  DIREKT
1764464678.05,190.67,0.09,183.62,0.00,-14.12,47.99,328.89,4,31.51,-54.60,109.23,33.12,61.00,184.00,0,198.96,49.12,109.23, GAZ |  DIREKT
1764464678.07,190.67,0.09,183.62,0.00,-14.12,47.99,328.89,4,31.60,-54.53,109.36,33.12,57.23,183.85,0,198.95,49.08,109.36, GAZ |  DIREKT
1764464678.10,190.67,0.10,183.62,0.00,-14.12,47.99,328.89,4,31.53,-54.53,109.51,33.13,42.27,183.85,0,198.95,49.09,109.51, GAZ |  DIREKT
1764464678.12,190.66,0.10,183.62,0.00,-14.12,47.99,328.89,4,31.81,-54.37,109.66,33.13,41.45,183.49,0,198.92,49.01,109.66, GAZ |  DIREKT
1764464678.14,190.66,0.10,183.62,0.00,-14.12,47.99,328.89,4,33.35,-53.48,110.01,33.15,77.50,181.76,0,198.81,48.59,110.01, GAZ |  DIREKT
1764464678.16,190.66,0.10,183.62,0.00,-14.12,47.99,328.89,4,33.75,-53.24,110.19,33.16,77.61,181.27,0,198.77,48.47,110.19, GAZ |  DIREKT
1764464678.18,190.66,0.10,183.62,0.00,-14.12,47.99,328.89,4,33.91,-53.09,110.42,33.17,64.72,180.99,0,198.74,48.42,110.42, GAZ |  DIREKT
1764464678.20,190.66,0.10,183.62,0.00,-14.12,47.99,328.89,4,34.32,-52.85,110.56,33.17,66.64,180.51,0,198.71,48.30,110.56, GAZ |  DIREKT
1764464678.22,190.66,0.10,183.63,0.00,-14.12,47.99,328.89,4,34.64,-52.66,110.62,33.17,65.09,180.15,0,198.68,48.21,110.62, GAZ |  DIREKT
1764464678.25,190.66,0.10,183.63,0.00,-14.12,47.99,328.89,4,35.25,-52.26,110.76,33.17,66.23,179.45,0,198.62,48.03,110.76, GAZ |  DIREKT
1764464678.27,190.65,0.10,183.63,0.00,-14.12,47.99,328.89,4,35.56,-52.05,110.88,33.17,67.10,179.07,0,198.58,47.94,110.88, GAZ |  DIREKT
1764464678.29,190.65,0.10,183.63,0.00,-14.12,47.99,328.89,4,36.00,-51.73,111.05,33.17,62.39,178.52,0,198.53,47.80,111.05, GAZ |  DIREKT
1764464678.31,190.65,0.10,183.63,0.00,-14.12,47.99,328.89,4,36.27,-51.54,111.19,33.17,62.11,178.18,0,198.49,47.72,111.19, GAZ |  DIREKT
1764464678.33,190.65,0.10,183.63,0.00,-14.12,47.99,328.89,4,36.46,-51.41,111.30,33.18,62.81,177.93,0,198.47,47.66,111.30, GAZ |  DIREKT
1764464678.35,190.65,0.10,183.63,0.00,-14.12,47.99,328.89,4,36.47,-51.37,111.43,33.18,47.26,177.85,0,198.46,47.65,111.43, GAZ |  DIREKT
1764464678.38,190.65,0.10,183.63,0.00,-14.12,47.99,328.89,4,36.83,-51.11,111.59,33.19,47.46,177.40,0,198.41,47.54,111.59, GAZ |  DIREKT
1764464678.40,190.64,0.10,183.63,0.00,-14.12,47.99,328.89,4,37.76,-50.45,111.86,33.20,64.61,176.29,0,198.30,47.27,111.86, GAZ |  DIREKT
1764464678.42,190.64,0.10,183.63,0.00,-14.12,47.99,328.89,4,38.10,-50.20,112.03,33.21,65.19,175.86,0,198.25,47.17,112.03, GAZ |  DIREKT
1764464678.44,190.64,0.10,183.63,0.00,-14.12,47.99,328.89,4,38.61,-49.77,112.25,33.21,65.69,175.20,0,198.16,47.01,112.25, GAZ |  DIREKT
1764464678.46,190.64,0.10,183.63,0.00,-14.12,47.99,328.89,4,38.88,-49.57,112.33,33.21,62.80,174.88,0,198.13,46.93,112.33, GAZ |  DIREKT
1764464678.48,190.64,0.10,183.64,0.00,-14.12,47.99,328.89,4,39.31,-49.26,112.44,33.21,62.53,174.37,0,198.07,46.81,112.44, GAZ |  DIREKT
1764464678.50,190.64,0.10,183.64,0.00,-14.12,47.99,328.89,4,39.46,-49.12,112.55,33.21,56.60,174.16,0,198.04,46.76,112.55, GAZ |  DIREKT
1764464678.53,190.63,0.10,183.64,0.00,-14.12,47.99,328.89,4,39.78,-48.87,112.68,33.21,56.78,173.76,0,197.99,46.65,112.68, GAZ |  DIREKT
1764464678.55,190.63,0.10,183.64,0.00,-14.12,47.99,328.89,4,39.48,-49.06,112.75,33.22,29.10,174.03,0,198.02,46.73,112.75, GAZ |  DIREKT
1764464678.57,190.63,0.10,183.64,0.00,-14.12,47.99,328.89,4,39.96,-48.68,112.93,33.22,31.05,173.44,0,197.94,46.58,112.93, GAZ |  DIREKT
1764464678.59,190.63,0.10,183.64,0.00,-14.12,47.99,328.89,4,41.28,-47.62,113.27,33.23,65.23,171.85,0,197.72,46.19,113.27, GAZ |  DIREKT
1764464678.61,190.63,0.10,183.64,0.00,-14.12,47.99,328.89,4,41.49,-47.43,113.41,33.23,63.67,171.56,0,197.68,46.12,113.41, GAZ |  DIREKT
1764464678.63,190.63,0.10,183.64,0.00,-14.12,47.99,328.89,4,41.84,-47.14,113.56,33.24,64.54,171.11,0,197.61,46.02,113.56, GAZ |  DIREKT
1764464678.66,190.62,0.10,183.64,0.00,-14.12,47.99,328.89,4,42.10,-46.89,113.75,33.25,61.04,170.74,0,197.56,45.93,113.75, GAZ |  DIREKT
1764464678.68,190.62,0.10,183.64,0.00,-14.12,47.99,328.89,4,42.37,-46.64,113.89,33.25,61.39,170.38,0,197.50,45.85,113.89, GAZ |  DIREKT
1764464678.70,190.62,0.11,183.64,0.00,-14.12,47.99,328.89,4,43.10,-45.98,114.05,33.25,73.54,169.50,0,197.35,45.63,114.05, GAZ |  DIREKT
1764464678.72,190.62,0.11,183.65,0.00,-14.12,47.99,328.89,4,43.45,-45.67,114.17,33.25,74.32,169.06,0,197.28,45.52,114.17, GAZ |  DIREKT
1764464678.74,190.62,0.11,183.65,0.00,-14.12,47.99,328.89,4,42.73,-46.26,114.14,33.25,26.15,169.85,0,197.41,45.72,114.14, GAZ |  DIREKT
1764464678.76,190.62,0.11,183.65,0.00,-14.12,47.99,328.89,4,43.07,-45.94,114.29,33.26,27.85,169.41,0,197.33,45.61,114.29, GAZ |  DIREKT
1764464678.78,190.61,0.11,183.65,0.00,-14.12,47.99,328.89,4,43.35,-45.68,114.43,33.26,26.40,169.04,0,197.27,45.52,114.43, GAZ |  DIREKT
1764464678.81,190.61,0.11,183.65,0.00,-14.12,47.99,328.89,4,44.19,-44.89,114.69,33.26,43.20,167.98,0,197.08,45.26,114.69, GAZ |  DIREKT
1764464678.83,190.61,0.11,183.65,0.00,-14.12,47.99,328.89,4,44.50,-44.60,114.84,33.26,44.18,167.58,0,197.01,45.16,114.84, GAZ |  DIREKT
1764464678.85,190.61,0.11,183.65,0.00,-14.12,47.99,328.89,4,44.61,-44.46,115.00,33.27,34.73,167.37,0,196.97,45.12,115.00, GAZ |  DIREKT
1764464678.87,190.61,0.11,183.65,0.00,-14.12,47.99,328.89,4,44.89,-44.17,115.16,33.28,35.24,166.99,0,196.90,45.03,115.16, GAZ |  DIREKT
1764464678.89,190.61,0.11,183.65,0.00,-14.12,47.99,328.89,4,45.10,-43.96,115.28,33.28,35.11,166.70,0,196.85,44.96,115.28, GAZ |  DIREKT
1764464678.91,190.60,0.11,183.65,0.00,-14.12,47.99,328.89,4,46.46,-42.60,115.67,33.30,78.63,165.00,0,196.51,44.55,115.67, GAZ |  DIREKT
1764464678.94,190.60,0.11,183.65,0.00,-14.12,47.99,328.89,4,46.88,-42.17,115.83,33.30,80.74,164.45,0,196.39,44.41,115.83, GAZ |  DIREKT
1764464678.96,190.60,0.11,183.65,0.00,-14.12,47.99,328.89,4,46.33,-42.67,115.77,33.30,35.86,165.08,0,196.52,44.57,115.77, GAZ |  DIREKT
1764464678.98,190.60,0.11,183.66,0.00,-14.12,47.99,328.89,4,46.52,-42.47,115.86,33.30,34.12,164.83,0,196.46,44.51,115.86, GAZ |  DIREKT
1764464679.00,190.60,0.11,183.66,0.00,-14.12,47.99,328.89,4,46.79,-42.16,116.00,33.30,32.18,164.45,0,196.38,44.41,116.00, GAZ |  DIREKT
1764464679.02,190.60,0.11,183.66,0.00,-14.12,47.99,328.89,4,47.10,-41.81,116.15,33.30,31.70,164.02,0,196.28,44.31,116.15, GAZ |  DIREKT
1764464679.04,190.60,0.11,183.66,0.00,-14.12,47.99,328.89,4,47.31,-41.57,116.28,33.30,31.43,163.73,0,196.22,44.23,116.28, GAZ |  DIREKT
1764464679.06,190.59,0.11,183.66,0.00,-14.12,47.99,328.89,4,48.39,-40.37,116.60,33.30,62.47,162.35,0,195.89,43.89,116.60, GAZ |  DIREKT
1764464679.09,190.59,0.11,183.66,0.00,-14.12,47.99,328.89,4,48.67,-40.04,116.75,33.31,62.15,161.96,0,195.80,43.80,116.75, GAZ |  DIREKT
1764464679.11,190.59,0.11,183.66,0.00,-14.12,47.99,328.89,4,48.60,-40.07,116.87,33.32,48.14,161.98,0,195.80,43.81,116.87, GAZ |  DIREKT
1764464679.13,190.59,0.11,183.66,0.00,-14.12,47.99,328.89,4,48.99,-39.60,117.05,33.32,49.37,161.44,0,195.67,43.68,117.05, GAZ |  DIREKT
1764464679.15,190.59,0.11,183.66,0.00,-14.12,47.99,328.89,4,49.08,-39.49,117.15,33.33,48.25,161.30,0,195.64,43.65,117.15, GAZ |  DIREKT
1764464679.17,190.59,0.11,183.66,0.00,-14.12,47.99,328.89,4,49.19,-39.30,117.29,33.33,37.53,161.10,0,195.58,43.60,117.29, GAZ |  DIREKT
1764464679.19,190.58,0.11,183.66,0.00,-14.12,47.99,328.89,4,49.53,-38.89,117.39,33.33,36.99,160.65,0,195.46,43.49,117.39, GAZ |  DIREKT
1764464679.21,190.58,0.11,183.66,0.00,-14.12,47.99,328.89,4,49.63,-38.75,117.48,33.33,26.63,160.50,0,195.42,43.45,117.48, GAZ |  DIREKT
1764464679.24,190.58,0.11,183.67,0.00,-14.12,47.99,328.89,4,49.96,-38.33,117.63,33.33,26.78,160.04,0,195.29,43.34,117.63, GAZ |  DIREKT
1764464679.26,190.58,0.11,183.67,0.00,-14.12,47.99,328.89,4,50.93,-37.09,117.95,33.33,56.63,158.76,0,194.92,43.02,117.95, GAZ |  DIREKT
1764464679.28,190.58,0.11,183.67,0.00,-14.12,47.99,328.89,4,51.33,-36.56,118.13,33.33,59.77,158.21,0,194.75,42.88,118.13, GAZ |  DIREKT
1764464679.30,190.58,0.11,183.67,0.00,-14.12,47.99,328.89,4,51.38,-36.48,118.23,33.33,56.89,158.10,0,194.73,42.86,118.23, GAZ |  DIREKT
1764464679.32,190.57,0.12,183.67,0.00,-14.12,47.99,328.89,4,50.93,-37.02,118.23,33.34,23.65,158.62,0,194.89,43.00,118.23, GAZ |  DIREKT
1764464679.34,190.57,0.12,183.67,0.00,-14.12,47.99,328.89,4,51.27,-36.56,118.40,33.34,26.14,158.15,0,194.75,42.88,118.40, GAZ |  DIREKT
1764464679.36,190.57,0.12,183.67,0.00,-14.12,47.99,328.89,4,52.53,-34.82,118.84,33.36,74.48,156.46,0,194.20,42.47,118.84, GAZ |  DIREKT
1764464679.38,190.57,0.12,183.67,0.00,-14.12,47.99,328.89,4,52.82,-34.40,119.02,33.36,75.17,156.03,0,194.07,42.37,119.02, GAZ |  DIREKT
1764464679.41,190.57,0.12,183.67,0.00,-14.12,47.99,328.89,4,52.94,-34.22,119.11,33.36,74.47,155.85,0,194.01,42.32,119.11, GAZ |  DIREKT
1764464679.43,190.57,0.12,183.67,0.00,-14.12,47.99,328.89,4,53.24,-33.74,119.23,33.36,74.99,155.43,0,193.85,42.22,119.23, GAZ |  DIREKT
1764464679.45,190.57,0.12,183.67,0.00,-14.12,47.99,328.89,4,53.59,-33.22,119.38,33.36,75.17,154.95,0,193.68,42.10,119.38, GAZ |  DIREKT
1764464679.47,190.56,0.12,183.68,0.00,-14.12,47.99,328.89,4,53.64,-33.08,119.48,33.36,62.31,154.83,0,193.63,42.07,119.48, GAZ |  DIREKT
1764464679.49,190.56,0.12,183.68,0.00,-14.12,47.99,328.89,4,53.98,-32.54,119.65,33.36,63.95,154.33,0,193.45,41.95,119.65, GAZ |  DIREKT
1764464679.51,190.56,0.12,183.68,0.00,-14.12,47.99,328.89,4,53.73,-32.88,119.70,33.37,38.40,154.62,0,193.56,42.02,119.70, GAZ |  DIREKT
1764464679.53,190.56,0.12,183.68,0.00,-14.12,47.99,328.89,4,53.86,-32.64,119.83,33.37,35.33,154.39,0,193.48,41.97,119.83, GAZ |  DIREKT
1764464679.56,190.56,0.12,183.68,0.00,-14.12,47.99,328.89,4,53.97,-32.47,119.93,33.37,34.45,154.22,0,193.42,41.92,119.93, GAZ |  DIREKT
1764464679.58,190.56,0.12,183.68,0.00,-14.12,47.99,328.89,4,54.40,-31.75,120.17,33.38,42.99,153.59,0,193.17,41.78,120.17, GAZ |  DIREKT
1764464679.60,190.55,0.12,183.68,0.00,-14.12,47.99,328.89,4,54.67,-31.30,120.33,33.38,46.02,153.19,0,193.02,41.68,120.33, GAZ |  DIREKT
1764464679.62,190.55,0.12,183.68,0.00,-14.12,47.99,328.89,4,55.15,-30.46,120.60,33.39,55.76,152.47,0,192.72,41.51,120.60, GAZ |  DIREKT
1764464679.64,190.55,0.12,183.68,0.00,-14.12,47.99,328.89,4,55.29,-30.19,120.73,33.40,55.99,152.25,0,192.63,41.46,120.73, GAZ |  DIREKT
1764464679.66,190.55,0.12,183.68,0.00,-14.12,47.99,328.89,4,55.54,-29.71,120.85,33.40,48.62,151.87,0,192.46,41.36,120.85, GAZ |  DIREKT
1764464679.68,190.55,0.12,183.68,0.00,-14.12,47.99,328.89,4,55.78,-29.27,120.98,33.40,48.58,151.52,0,192.30,41.28,120.98, GAZ |  DIREKT
1764464679.71,190.55,0.12,183.68,0.00,-14.12,47.99,328.89,4,56.00,-28.87,121.12,33.40,49.52,151.19,0,192.16,41.19,121.12, GAZ |  DIREKT
1764464679.73,190.54,0.12,183.69,0.00,-14.12,47.99,328.89,4,56.58,-27.79,121.39,33.40,71.74,150.35,0,191.77,40.99,121.39, GAZ |  DIREKT
1764464679.75,190.54,0.12,183.69,0.00,-14.12,47.99,328.89,4,56.69,-27.56,121.51,33.40,71.83,150.16,0,191.68,40.94,121.51, GAZ |  DIREKT
1764464679.77,190.54,0.12,183.69,0.00,-14.12,47.99,328.89,4,56.73,-27.41,121.64,33.40,56.80,150.05,0,191.63,40.91,121.64, GAZ |  DIREKT
1764464679.79,190.54,0.12,183.69,0.00,-14.12,47.99,328.89,4,56.94,-26.99,121.80,33.41,58.41,149.72,0,191.47,40.84,121.80, GAZ |  DIREKT
1764464679.81,190.54,0.12,183.69,0.00,-14.12,47.99,328.89,4,57.07,-26.71,121.91,33.41,57.85,149.50,0,191.37,40.78,121.91, GAZ |  DIREKT
1764464679.83,190.54,0.12,183.69,0.00,-14.12,47.99,328.89,4,57.28,-26.26,122.10,33.42,58.04,149.16,0,191.20,40.70,122.10, GAZ |  DIREKT
1764464679.86,190.54,0.12,183.69,0.00,-14.12,47.99,328.89,4,57.44,-25.90,122.24,33.42,58.18,148.89,0,191.06,40.64,122.24, GAZ |  DIREKT
1764464679.88,190.53,0.12,183.69,0.00,-14.12,47.99,328.89,4,57.78,-25.09,122.48,33.42,70.84,148.35,0,190.76,40.51,122.48, GAZ |  DIREKT
1764464679.90,190.53,0.12,183.69,0.00,-14.12,47.99,328.89,4,58.06,-24.50,122.62,33.42,70.53,147.94,0,190.53,40.41,122.62, GAZ |  DIREKT
1764464679.92,190.53,0.12,183.69,0.00,-14.12,47.99,328.89,4,57.97,-24.64,122.64,33.42,50.26,148.03,0,190.58,40.43,122.64, GAZ |  DIREKT
1764464679.94,190.53,0.13,183.69,0.00,-14.12,47.99,328.89,4,58.15,-24.21,122.78,33.42,49.35,147.74,0,190.42,40.36,122.78, GAZ |  DIREKT
1764464679.96,190.53,0.13,183.70,0.00,-14.12,47.99,328.89,4,58.29,-23.90,122.91,33.42,49.18,147.51,0,190.30,40.30,122.91, GAZ |  DIREKT
1764464679.99,190.53,0.13,183.70,0.00,-14.12,47.99,328.89,4,58.67,-22.99,123.15,33.42,63.65,146.92,0,189.94,40.15,123.15, GAZ |  DIREKT
1764464680.01,190.52,0.13,183.70,0.00,-14.12,47.99,328.89,4,58.90,-22.43,123.33,33.42,64.90,146.55,0,189.72,40.06,123.33, GAZ |  DIREKT
1764464680.03,190.52,0.13,183.70,0.00,-14.12,47.99,328.89,4,59.11,-21.85,123.53,33.43,67.05,146.19,0,189.50,39.98,123.53, GAZ |  DIREKT
1764464680.05,190.52,0.13,183.70,0.00,-14.12,47.99,328.89,4,59.25,-21.48,123.68,33.43,68.98,145.95,0,189.35,39.92,123.68, GAZ |  DIREKT
1764464680.07,190.52,0.13,183.70,0.00,-14.12,47.99,328.89,4,59.41,-21.00,123.88,33.45,61.89,145.65,0,189.15,39.86,123.88, GAZ |  DIREKT
1764464680.10,190.52,0.13,183.70,0.00,-14.12,47.99,328.89,4,59.52,-20.68,124.02,33.45,60.67,145.44,0,189.02,39.81,124.02, GAZ |  DIREKT
1764464680.12,190.52,0.13,183.70,0.00,-14.12,47.99,328.89,4,59.58,-20.51,124.11,33.45,60.14,145.33,0,188.96,39.78,124.11, GAZ |  DIREKT
1764464680.14,190.51,0.13,183.70,0.00,-14.12,47.99,328.89,4,59.39,-20.92,124.11,33.45,31.38,145.56,0,189.12,39.84,124.11, GAZ |  DIREKT
