time,my_x,my_y,my_z,my_speed,my_roll,my_pitch,my_yaw,target_id,target_x,target_y,target_z,target_speed,target_gecikme_ms,target_dist,kilitlenme,cmd_yaw,cmd_speed,cmd_alt,mode_log
1765054234.30,0.00,0.00,0.00,0.00,0.00,0.00,0.00,0,0.00,0.00,0.00,0.00,0.00,0.00,0,0.00,20.00,100.00,HEDEF YOK
1765054234.56,0.00,0.00,0.00,0.00,0.04,0.04,0.06,0,0.00,0.00,0.00,0.00,0.00,0.00,0,0.06,20.00,100.00,HEDEF YOK
1765054234.56,0.00,0.00,0.00,0.00,0.04,0.04,0.06,0,0.00,0.00,0.00,0.00,0.00,0.00,0,0.06,20.00,100.00,HEDEF YOK
1765054234.56,0.00,0.00,0.00,0.00,0.04,0.04,0.06,0,0.00,0.00,0.00,0.00,0.00,0.00,0,0.06,20.00,100.00,HEDEF YOK
1765054234.57,0.00,0.00,0.00,0.00,0.04,0.04,0.06,0,0.00,0.00,0.00,0.00,0.00,0.00,0,0.06,20.00,100.00,HEDEF YOK
1765054234.80,0.00,0.00,0.00,0.00,0.09,0.09,0.10,0,0.00,0.00,0.00,0.00,0.00,0.00,0,0.10,20.00,100.00,HEDEF YOK
1765054234.80,0.00,0.00,0.00,0.00,0.09,0.09,0.10,0,0.00,0.00,0.00,0.00,0.00,0.00,0,0.10,20.00,100.00,HEDEF YOK
1765054234.80,0.00,0.00,0.00,0.00,0.09,0.09,0.10,0,0.00,0.00,0.00,0.00,0.00,0.00,0,0.10,20.00,100.00,HEDEF YOK
1765054234.80,0.00,0.00,0.00,0.00,0.09,0.09,0.10,0,0.00,0.00,0.00,0.00,0.00,0.00,0,0.10,20.00,100.00,HEDEF YOK
1765054235.06,0.00,0.00,0.00,0.00,0.14,0.14,0.16,0,0.00,0.00,0.00,0.00,0.00,0.00,0,0.16,20.00,100.00,HEDEF YOK
1765054235.06,0.00,0.00,0.00,0.00,0.14,0.14,0.16,0,0.00,0.00,0.00,0.00,0.00,0.00,0,0.16,20.00,100.00,HEDEF YOK
1765054235.06,0.00,0.00,0.00,0.00,0.14,0.14,0.16,0,0.00,0.00,0.00,0.00,0.00,0.00,0,0.16,20.00,100.00,HEDEF YOK
1765054235.06,0.00,0.00,0.00,0.00,0.14,0.14,0.16,0,0.00,0.00,0.00,0.00,0.00,0.00,0,0.16,20.00,100.00,HEDEF YOK
1765054235.30,0.00,0.00,0.00,0.00,0.21,0.21,0.23,0,0.00,0.00,0.00,0.00,0.00,0.00,0,0.23,20.00,100.00,HEDEF YOK
1765054235.31,0.00,0.00,0.00,0.00,0.21,0.21,0.23,0,0.00,0.00,0.00,0.00,0.00,0.00,0,0.23,20.00,100.00,HEDEF YOK
1765054235.31,0.00,0.00,0.00,0.00,0.21,0.21,0.23,0,0.00,0.00,0.00,0.00,0.00,0.00,0,0.23,20.00,100.00,HEDEF YOK
1765054235.31,0.00,0.00,0.00,0.00,0.21,0.21,0.23,0,0.00,0.00,0.00,0.00,0.00,0.00,0,0.23,20.00,100.00,HEDEF YOK
1765054235.56,0.00,0.00,0.00,0.00,0.31,0.31,0.33,0,0.00,0.00,0.00,0.00,0.00,0.00,0,0.33,20.00,100.00,HEDEF YOK
1765054235.56,0.00,0.00,0.00,0.00,0.31,0.31,0.33,0,0.00,0.00,0.00,0.00,0.00,0.00,0,0.33,20.00,100.00,HEDEF YOK
1765054235.56,0.00,0.00,0.00,0.00,0.31,0.31,0.33,0,0.00,0.00,0.00,0.00,0.00,0.00,0,0.33,20.00,100.00,HEDEF YOK
1765054235.56,0.00,0.00,0.00,0.00,0.31,0.31,0.33,0,0.00,0.00,0.00,0.00,0.00,0.00,0,0.33,20.00,100.00,HEDEF YOK
1765054235.80,0.00,0.00,0.00,0.00,0.46,0.47,0.48,0,0.00,0.00,0.00,0.00,0.00,0.00,0,0.48,20.00,100.00,HEDEF YOK
1765054235.80,0.00,0.00,0.00,0.00,0.46,0.47,0.48,0,0.00,0.00,0.00,0.00,0.00,0.00,0,0.48,20.00,100.00,HEDEF YOK
1765054235.80,0.00,0.00,0.00,0.00,0.46,0.47,0.48,0,0.00,0.00,0.00,0.00,0.00,0.00,0,0.48,20.00,100.00,HEDEF YOK
1765054235.80,0.00,0.00,0.00,0.00,0.46,0.47,0.48,0,0.00,0.00,0.00,0.00,0.00,0.00,0,0.48,20.00,100.00,HEDEF YOK
1765054236.06,0.00,0.00,0.00,0.00,0.76,0.78,0.78,0,0.00,0.00,0.00,0.00,0.00,0.00,0,0.78,20.00,100.00,HEDEF YOK
1765054236.06,0.00,0.00,0.00,0.00,0.76,0.78,0.78,0,0.00,0.00,0.00,0.00,0.00,0.00,0,0.78,20.00,100.00,HEDEF YOK
1765054236.06,0.00,0.00,0.00,0.00,0.76,0.78,0.78,0,0.00,0.00,0.00,0.00,0.00,0.00,0,0.78,20.00,100.00,HEDEF YOK
1765054236.07,0.00,0.00,0.00,0.00,0.76,0.79,0.79,0,0.00,0.00,0.00,0.00,0.00,0.00,0,0.79,20.00,100.00,HEDEF YOK
1765054236.30,0.00,0.00,0.00,0.00,1.37,1.40,1.40,0,0.00,0.00,0.00,0.00,0.00,0.00,0,1.40,20.00,100.00,HEDEF YOK
1765054236.30,-0.00,0.00,0.00,0.00,1.37,1.40,1.40,0,0.00,0.00,0.00,0.00,0.00,0.00,0,1.40,20.00,100.00,HEDEF YOK
1765054236.30,-0.00,0.00,0.00,0.00,1.38,1.41,1.41,0,0.00,0.00,0.00,0.00,0.00,0.00,0,1.41,20.00,100.00,HEDEF YOK
1765054236.31,-0.01,0.01,0.00,0.00,1.39,1.42,1.42,0,0.00,0.00,0.00,0.00,0.00,0.00,0,1.42,20.00,100.00,HEDEF YOK
1765054236.56,-97.76,93.39,4.29,0.00,3.28,3.25,3.33,0,0.00,0.00,0.00,0.00,0.00,0.00,0,3.33,20.00,100.00,HEDEF YOK
1765054236.56,-97.76,93.39,4.29,0.00,3.30,3.26,3.35,0,0.00,0.00,0.00,0.00,0.00,0.00,0,3.35,20.00,100.00,HEDEF YOK
1765054236.56,-97.76,93.39,4.29,0.00,3.30,3.26,3.35,0,0.00,0.00,0.00,0.00,0.00,0.00,0,3.35,20.00,100.00,HEDEF YOK
1765054236.57,-97.76,93.39,4.29,0.00,3.34,3.30,3.39,0,0.00,0.00,0.00,0.00,0.00,0.00,0,3.39,20.00,100.00,HEDEF YOK
1765054236.80,-97.65,93.30,6.27,0.00,10.41,9.09,10.52,0,0.00,0.00,0.00,0.00,0.00,0.00,0,10.52,20.00,100.00,HEDEF YOK
1765054236.80,-97.65,93.30,6.27,0.00,10.46,9.13,10.58,0,0.00,0.00,0.00,0.00,0.00,0.00,0,10.58,20.00,100.00,HEDEF YOK
1765054236.80,-97.65,93.30,6.27,0.00,10.51,9.16,10.63,0,0.00,0.00,0.00,0.00,0.00,0.00,0,10.63,20.00,100.00,HEDEF YOK
1765054236.81,-97.65,93.30,6.27,0.00,10.91,9.45,11.03,0,0.00,0.00,0.00,0.00,0.00,0.00,0,11.03,20.00,100.00,HEDEF YOK
1765054237.06,-97.21,92.94,8.89,21.28,62.95,18.24,63.37,0,0.00,0.00,0.00,0.00,0.00,0.00,0,63.37,20.00,100.00,HEDEF YOK
1765054237.06,-97.21,92.94,8.90,21.17,63.79,17.99,64.21,0,0.00,0.00,0.00,0.00,0.00,0.00,0,64.21,20.00,100.00,HEDEF YOK
1765054237.06,-97.21,92.94,8.91,21.07,64.16,17.88,64.58,0,0.00,0.00,0.00,0.00,0.00,0.00,0,64.58,20.00,100.00,HEDEF YOK
1765054237.06,-97.20,92.93,8.96,20.96,67.58,16.69,68.03,0,0.00,0.00,0.00,0.00,0.00,0.00,0,68.03,20.00,100.00,HEDEF YOK
1765054237.30,-93.89,91.50,15.29,40.85,8.19,7.44,8.29,0,0.00,0.00,0.00,0.00,0.00,0.00,0,8.29,20.00,100.00,HEDEF YOK
1765054237.30,-93.88,91.50,15.30,40.65,8.29,7.51,8.39,0,0.00,0.00,0.00,0.00,0.00,0.00,0,8.39,20.00,100.00,HEDEF YOK
1765054237.31,-93.86,91.49,15.33,40.45,8.45,7.63,8.55,0,0.00,0.00,0.00,0.00,0.00,0.00,0,8.55,20.00,100.00,HEDEF YOK
1765054237.31,-93.79,91.46,15.42,40.24,9.04,8.08,9.14,0,0.00,0.00,0.00,0.00,0.00,0.00,0,9.14,20.00,100.00,HEDEF YOK
1765054237.56,-87.20,88.66,27.66,80.00,90.00,-26.06,111.06,0,0.00,0.00,0.00,0.00,0.00,0.00,0,111.06,20.00,100.00,HEDEF YOK
1765054237.56,-87.18,88.65,27.66,79.60,90.00,-26.06,111.06,0,0.00,0.00,0.00,0.00,0.00,0.00,0,111.06,20.00,100.00,HEDEF YOK
1765054237.56,-87.17,88.64,27.66,79.20,90.00,-26.06,111.06,0,0.00,0.00,0.00,0.00,0.00,0.00,0,111.06,20.00,100.00,HEDEF YOK
1765054237.56,-87.05,88.55,27.65,78.81,90.00,-26.06,111.06,0,0.00,0.00,0.00,0.00,0.00,0.00,0,111.06,20.00,100.00,HEDEF YOK
1765054237.80,-72.69,76.85,26.64,77.47,90.00,-26.11,111.09,0,0.00,0.00,0.00,0.00,0.00,0.00,0,111.09,20.00,100.00,HEDEF YOK
1765054237.80,-72.66,76.83,26.64,77.08,90.00,-26.11,111.09,0,0.00,0.00,0.00,0.00,0.00,0.00,0,111.09,20.00,100.00,HEDEF YOK
1765054237.80,-72.62,76.80,26.64,76.70,90.00,-26.11,111.09,0,0.00,0.00,0.00,0.00,0.00,0.00,0,111.09,20.00,100.00,HEDEF YOK
1765054237.80,-72.41,76.62,26.63,76.31,90.00,-26.12,111.09,0,0.00,0.00,0.00,0.00,0.00,0.00,0,111.09,20.00,100.00,HEDEF YOK
1765054238.06,-57.60,63.85,26.38,75.11,90.00,-26.17,111.12,0,0.00,0.00,0.00,0.00,0.00,0.00,0,111.12,20.00,100.00,HEDEF YOK
1765054238.06,-57.58,63.84,26.38,74.73,90.00,-26.17,111.12,0,0.00,0.00,0.00,0.00,0.00,0.00,0,111.12,20.00,100.00,HEDEF YOK
1765054238.06,-57.56,63.81,26.38,74.36,90.00,-26.17,111.12,0,0.00,0.00,0.00,0.00,0.00,0.00,0,111.12,20.00,100.00,HEDEF YOK
1765054238.06,-57.44,63.70,26.38,73.99,90.00,-26.17,111.12,0,0.00,0.00,0.00,0.00,0.00,0.00,0,111.12,20.00,100.00,HEDEF YOK
1765054238.30,-44.58,51.94,26.90,73.06,90.00,-26.24,111.14,0,0.00,0.00,0.00,0.00,0.00,0.00,0,111.14,20.00,100.00,HEDEF YOK
1765054238.30,-44.56,51.93,26.90,72.69,90.00,-26.24,111.14,0,0.00,0.00,0.00,0.00,0.00,0.00,0,111.14,20.00,100.00,HEDEF YOK
1765054238.30,-44.54,51.91,26.90,72.33,90.00,-26.24,111.14,0,0.00,0.00,0.00,0.00,0.00,0.00,0,111.14,20.00,100.00,HEDEF YOK
1765054238.31,-44.38,51.76,26.92,71.97,90.00,-26.24,111.14,0,0.00,0.00,0.00,0.00,0.00,0.00,0,111.14,20.00,100.00,HEDEF YOK
1765054238.56,-31.18,38.91,28.28,71.22,90.00,-26.30,111.18,0,0.00,0.00,0.00,0.00,0.00,0.00,0,111.18,20.00,100.00,HEDEF YOK
1765054238.56,-31.15,38.89,28.29,70.87,90.00,-26.30,111.18,0,0.00,0.00,0.00,0.00,0.00,0.00,0,111.18,20.00,100.00,HEDEF YOK
1765054238.56,-31.13,38.86,28.29,70.51,90.00,-26.30,111.18,0,0.00,0.00,0.00,0.00,0.00,0.00,0,111.18,20.00,100.00,HEDEF YOK
1765054238.57,-30.96,38.69,28.31,70.16,90.00,-26.30,111.19,0,0.00,0.00,0.00,0.00,0.00,0.00,0,111.19,20.00,100.00,HEDEF YOK
1765054238.80,-19.58,26.90,30.28,69.66,90.00,-26.35,111.21,0,0.00,0.00,0.00,0.00,0.00,0.00,0,111.21,20.00,100.00,HEDEF YOK
1765054238.80,-19.56,26.87,30.29,69.31,90.00,-26.35,111.21,0,0.00,0.00,0.00,0.00,0.00,0.00,0,111.21,20.00,100.00,HEDEF YOK
1765054238.80,-19.54,26.85,30.29,68.97,90.00,-26.35,111.21,0,0.00,0.00,0.00,0.00,0.00,0.00,0,111.21,20.00,100.00,HEDEF YOK
1765054238.81,-19.46,26.76,30.31,68.62,90.00,-26.35,111.21,0,0.00,0.00,0.00,0.00,0.00,0.00,0,111.21,20.00,100.00,HEDEF YOK
1765054239.06,-7.96,14.04,33.18,68.35,90.00,-26.42,111.24,0,0.00,0.00,0.00,0.00,0.00,0.00,0,111.24,20.00,100.00,HEDEF YOK
1765054239.06,-7.93,14.01,33.18,68.01,90.00,-26.42,111.24,0,0.00,0.00,0.00,0.00,0.00,0.00,0,111.24,20.00,100.00,HEDEF YOK
1765054239.06,-7.91,13.98,33.19,67.67,90.00,-26.42,111.24,0,0.00,0.00,0.00,0.00,0.00,0.00,0,111.24,20.00,100.00,HEDEF YOK
1765054239.06,-7.82,13.88,33.22,67.33,90.00,-26.42,111.24,0,0.00,0.00,0.00,0.00,0.00,0.00,0,111.24,20.00,100.00,HEDEF YOK
1765054239.30,2.44,1.71,36.66,67.29,90.00,-26.48,111.26,0,0.00,0.00,0.00,0.00,0.00,0.00,0,111.26,20.00,100.00,HEDEF YOK
1765054239.30,2.47,1.67,36.67,66.95,90.00,-26.48,111.26,0,0.00,0.00,0.00,0.00,0.00,0.00,0,111.26,20.00,100.00,HEDEF YOK
1765054239.30,2.49,1.64,36.68,66.62,90.00,-26.48,111.26,0,0.00,0.00,0.00,0.00,0.00,0.00,0,111.26,20.00,100.00,HEDEF YOK
1765054239.31,2.68,1.41,36.75,66.28,90.00,-26.48,111.26,0,0.00,0.00,0.00,0.00,0.00,0.00,0,111.26,20.00,100.00,HEDEF YOK
1765054239.56,12.70,-11.35,41.07,66.49,90.00,-26.54,111.29,0,0.00,0.00,0.00,0.00,0.00,0.00,0,111.29,20.00,100.00,HEDEF YOK
1765054239.56,12.71,-11.36,41.08,66.16,90.00,-26.54,111.29,0,0.00,0.00,0.00,0.00,0.00,0.00,0,111.29,20.00,100.00,HEDEF YOK
1765054239.56,12.72,-11.38,41.09,65.83,90.00,-26.54,111.29,0,0.00,0.00,0.00,0.00,0.00,0.00,0,111.29,20.00,100.00,HEDEF YOK
1765054239.56,12.80,-11.48,41.13,65.50,90.00,-26.54,111.29,0,0.00,0.00,0.00,0.00,0.00,0.00,0,111.29,20.00,100.00,HEDEF YOK
1765054239.80,21.50,-23.43,45.82,65.90,90.00,-26.59,111.32,0,0.00,0.00,0.00,0.00,0.00,0.00,0,111.32,20.00,100.00,HEDEF YOK
1765054239.80,21.52,-23.46,45.83,65.57,90.00,-26.59,111.32,0,0.00,0.00,0.00,0.00,0.00,0.00,0,111.32,20.00,100.00,HEDEF YOK
1765054239.80,21.54,-23.48,45.84,65.24,90.00,-26.59,111.32,0,0.00,0.00,0.00,0.00,0.00,0.00,0,111.32,20.00,100.00,HEDEF YOK
1765054239.80,21.65,-23.64,45.90,64.91,90.00,-26.59,111.32,0,0.00,0.00,0.00,0.00,0.00,0.00,0,111.32,20.00,100.00,HEDEF YOK
1765054240.06,30.47,-36.74,51.74,65.61,90.00,-26.65,111.35,0,0.00,0.00,0.00,0.00,0.00,0.00,0,111.35,20.00,100.00,HEDEF YOK
1765054240.06,30.49,-36.76,51.75,65.28,90.00,-26.65,111.35,0,0.00,0.00,0.00,0.00,0.00,0.00,0,111.35,20.00,100.00,HEDEF YOK
1765054240.06,30.50,-36.79,51.76,64.96,90.00,-26.65,111.35,0,0.00,0.00,0.00,0.00,0.00,0.00,0,111.35,20.00,100.00,HEDEF YOK
1765054240.07,30.62,-36.97,51.85,64.63,90.00,-26.65,111.35,0,0.00,0.00,0.00,0.00,0.00,0.00,0,111.35,20.00,100.00,HEDEF YOK
1765054240.30,38.07,-48.98,57.82,65.46,90.00,-26.70,111.38,0,0.00,0.00,0.00,0.00,0.00,0.00,0,111.38,20.00,100.00,HEDEF YOK
1765054240.30,38.07,-48.99,57.83,65.13,90.00,-26.70,111.38,0,0.00,0.00,0.00,0.00,0.00,0.00,0,111.38,20.00,100.00,HEDEF YOK
1765054240.30,38.08,-49.00,57.84,64.80,90.00,-26.70,111.38,0,0.00,0.00,0.00,0.00,0.00,0.00,0,111.38,20.00,100.00,HEDEF YOK
1765054240.30,38.13,-49.09,57.88,64.48,90.00,-26.70,111.38,0,0.00,0.00,0.00,0.00,0.00,0.00,0,111.38,20.00,100.00,HEDEF YOK
1765054240.56,45.68,-62.41,65.17,65.65,90.00,-26.77,111.40,0,0.00,0.00,0.00,0.00,0.00,0.00,0,111.40,20.00,100.00,HEDEF YOK
1765054240.56,45.69,-62.43,65.19,65.32,90.00,-26.77,111.40,0,0.00,0.00,0.00,0.00,0.00,0.00,0,111.40,20.00,100.00,HEDEF YOK
1765054240.56,45.70,-62.45,65.20,64.99,90.00,-26.77,111.40,0,0.00,0.00,0.00,0.00,0.00,0.00,0,111.40,20.00,100.00,HEDEF YOK
1765054240.57,45.77,-62.58,65.27,64.67,90.00,-26.77,111.40,0,0.00,0.00,0.00,0.00,0.00,0.00,0,111.40,20.00,100.00,HEDEF YOK
1765054240.80,52.01,-74.66,72.49,65.89,90.00,-26.82,111.43,0,0.00,0.00,0.00,0.00,0.00,0.00,0,111.43,20.00,100.00,HEDEF YOK
1765054240.80,52.01,-74.68,72.50,65.56,90.00,-26.82,111.43,0,0.00,0.00,0.00,0.00,0.00,0.00,0,111.43,20.00,100.00,HEDEF YOK
1765054240.80,52.02,-74.69,72.50,65.23,90.00,-26.82,111.43,0,0.00,0.00,0.00,0.00,0.00,0.00,0,111.43,20.00,100.00,HEDEF YOK
1765054240.80,52.06,-74.78,72.56,64.91,90.00,-26.82,111.43,0,0.00,0.00,0.00,0.00,0.00,0.00,0,111.43,20.00,100.00,HEDEF YOK
1765054241.06,58.21,-87.94,81.04,66.45,90.00,-26.90,111.47,0,0.00,0.00,0.00,0.00,0.00,0.00,0,111.47,20.00,100.00,HEDEF YOK
1765054241.06,58.22,-87.97,81.06,66.12,90.00,-26.90,111.47,0,0.00,0.00,0.00,0.00,0.00,0.00,0,111.47,20.00,100.00,HEDEF YOK
1765054241.06,58.23,-87.99,81.08,65.79,90.00,-26.90,111.47,0,0.00,0.00,0.00,0.00,0.00,0.00,0,111.47,20.00,100.00,HEDEF YOK
1765054241.06,58.27,-88.10,81.15,65.46,90.00,-26.90,111.47,0,0.00,0.00,0.00,0.00,0.00,0.00,0,111.47,20.00,100.00,HEDEF YOK
1765054241.30,63.47,-100.53,89.73,67.07,90.00,-26.95,111.49,0,0.00,0.00,0.00,0.00,0.00,0.00,0,111.49,20.00,100.00,HEDEF YOK
1765054241.30,63.48,-100.55,89.75,66.74,90.00,-26.95,111.49,0,0.00,0.00,0.00,0.00,0.00,0.00,0,111.49,20.00,100.00,HEDEF YOK
1765054241.30,63.49,-100.57,89.77,66.40,90.00,-26.95,111.49,0,0.00,0.00,0.00,0.00,0.00,0.00,0,111.49,20.00,100.00,HEDEF YOK
1765054241.31,63.56,-100.76,89.90,66.07,90.00,-26.96,111.49,0,0.00,0.00,0.00,0.00,0.00,0.00,0,111.49,20.00,100.00,HEDEF YOK
1765054241.56,68.41,-113.82,99.52,67.94,90.00,-27.01,111.52,0,0.00,0.00,0.00,0.00,0.00,0.00,0,111.52,20.00,100.00,HEDEF YOK
1765054241.56,68.42,-113.85,99.54,67.60,90.00,-27.01,111.52,0,0.00,0.00,0.00,0.00,0.00,0.00,0,111.52,20.00,100.00,HEDEF YOK
1765054241.56,68.42,-113.86,99.54,67.26,90.00,-27.01,111.52,0,0.00,0.00,0.00,0.00,0.00,0.00,0,111.52,20.00,100.00,HEDEF YOK
1765054241.57,68.49,-114.06,99.70,66.93,90.00,-27.01,111.52,0,0.00,0.00,0.00,0.00,0.00,0.00,0,111.52,20.00,100.00,HEDEF YOK
1765054241.80,72.47,-126.27,109.22,68.79,90.00,-27.07,111.56,0,0.00,0.00,0.00,0.00,0.00,0.00,0,111.56,20.00,100.00,HEDEF YOK
1765054241.80,72.48,-126.28,109.23,68.44,90.00,-27.07,111.56,0,0.00,0.00,0.00,0.00,0.00,0.00,0,111.56,20.00,100.00,HEDEF YOK
1765054241.80,72.48,-126.29,109.24,68.10,90.00,-27.07,111.56,0,0.00,0.00,0.00,0.00,0.00,0.00,0,111.56,20.00,100.00,HEDEF YOK
1765054241.80,72.51,-126.38,109.31,67.76,90.00,-27.07,111.56,0,0.00,0.00,0.00,0.00,0.00,0.00,0,111.56,20.00,100.00,HEDEF YOK
1765054242.06,76.32,-139.91,120.44,70.00,90.00,-27.15,111.60,0,0.00,0.00,0.00,0.00,0.00,0.00,0,111.60,20.00,100.00,HEDEF YOK
1765054242.06,76.32,-139.94,120.46,69.65,90.00,-27.15,111.60,0,0.00,0.00,0.00,0.00,0.00,0.00,0,111.60,20.00,100.00,HEDEF YOK
1765054242.06,76.33,-139.97,120.49,69.30,90.00,-27.15,111.60,0,0.00,0.00,0.00,0.00,0.00,0.00,0,111.60,20.00,100.00,HEDEF YOK
1765054242.07,76.37,-140.10,120.60,68.95,90.00,-27.15,111.60,0,0.00,0.00,0.00,0.00,0.00,0.00,0,111.60,20.00,100.00,HEDEF YOK
1765054242.30,79.30,-152.42,131.26,71.07,90.00,-27.20,111.63,0,0.00,0.00,0.00,0.00,0.00,0.00,0,111.63,20.00,100.00,HEDEF YOK
1765054242.30,79.31,-152.44,131.27,70.72,90.00,-27.20,111.63,0,0.00,0.00,0.00,0.00,0.00,0.00,0,111.63,20.00,100.00,HEDEF YOK
1765054242.30,79.31,-152.45,131.29,70.36,90.00,-27.20,111.63,0,0.00,0.00,0.00,0.00,0.00,0.00,0,111.63,20.00,100.00,HEDEF YOK
1765054242.31,79.35,-152.65,131.46,70.01,90.00,-27.20,111.63,0,0.00,0.00,0.00,0.00,0.00,0.00,0,111.63,20.00,100.00,HEDEF YOK
1765054242.56,82.00,-166.13,143.67,72.47,90.00,-27.26,111.66,0,0.00,0.00,0.00,0.00,0.00,0.00,0,111.66,20.00,100.00,HEDEF YOK
1765054242.56,82.00,-166.16,143.69,72.11,90.00,-27.26,111.66,0,0.00,0.00,0.00,0.00,0.00,0.00,0,111.66,20.00,100.00,HEDEF YOK
1765054242.56,82.01,-166.18,143.71,71.75,90.00,-27.26,111.66,0,0.00,0.00,0.00,0.00,0.00,0.00,0,111.66,20.00,100.00,HEDEF YOK
1765054242.57,82.03,-166.31,143.84,71.39,90.00,-27.26,111.66,0,0.00,0.00,0.00,0.00,0.00,0.00,0,111.66,20.00,100.00,HEDEF YOK
1765054242.80,83.96,-178.69,155.55,73.70,90.00,-27.31,111.69,0,0.00,0.00,0.00,0.00,0.00,0.00,0,111.69,20.00,100.00,HEDEF YOK
1765054242.80,83.96,-178.72,155.57,73.33,90.00,-27.31,111.69,0,0.00,0.00,0.00,0.00,0.00,0.00,0,111.69,20.00,100.00,HEDEF YOK
1765054242.80,83.97,-178.75,155.60,72.96,90.00,-27.31,111.69,0,0.00,0.00,0.00,0.00,0.00,0.00,0,111.69,20.00,100.00,HEDEF YOK
1765054242.81,83.99,-178.90,155.75,72.60,90.00,-27.31,111.69,0,0.00,0.00,0.00,0.00,0.00,0.00,0,111.69,20.00,100.00,HEDEF YOK
1765054243.06,85.54,-192.19,168.82,75.19,90.00,-27.38,111.71,0,0.00,0.00,0.00,0.00,0.00,0.00,0,111.71,20.00,100.00,HEDEF YOK
1765054243.06,85.54,-192.20,168.84,74.82,90.00,-27.38,111.71,0,0.00,0.00,0.00,0.00,0.00,0.00,0,111.71,20.00,100.00,HEDEF YOK
1765054243.06,85.54,-192.23,168.86,74.44,90.00,-27.38,111.71,0,0.00,0.00,0.00,0.00,0.00,0.00,0,111.71,20.00,100.00,HEDEF YOK
1765054243.06,85.56,-192.42,169.06,74.07,90.00,-27.39,111.71,0,0.00,0.00,0.00,0.00,0.00,0.00,0,111.71,20.00,100.00,HEDEF YOK
1765054243.31,86.55,-205.15,182.07,76.61,90.00,-27.44,111.75,0,0.00,0.00,0.00,0.00,0.00,0.00,0,111.75,20.00,100.00,HEDEF YOK
1765054243.31,86.55,-205.16,182.08,76.22,90.00,-27.44,111.75,0,0.00,0.00,0.00,0.00,0.00,0.00,0,111.75,20.00,100.00,HEDEF YOK
1765054243.31,86.55,-205.18,182.09,75.84,90.00,-27.44,111.75,0,0.00,0.00,0.00,0.00,0.00,0.00,0,111.75,20.00,100.00,HEDEF YOK
1765054243.31,86.56,-205.28,182.21,75.46,90.00,-27.45,111.75,0,0.00,0.00,0.00,0.00,0.00,0.00,0,111.75,20.00,100.00,HEDEF YOK
1765054243.56,87.11,-218.68,196.39,78.21,90.00,-27.50,111.78,0,0.00,0.00,0.00,0.00,0.00,0.00,0,111.78,20.00,100.00,HEDEF YOK
1765054243.56,87.11,-218.70,196.42,77.82,90.00,-27.50,111.78,0,0.00,0.00,0.00,0.00,0.00,0.00,0,111.78,20.00,100.00,HEDEF YOK
1765054243.56,87.11,-218.73,196.45,77.43,90.00,-27.50,111.78,0,0.00,0.00,0.00,0.00,0.00,0.00,0,111.78,20.00,100.00,HEDEF YOK
1765054243.56,87.11,-218.89,196.62,77.04,90.00,-27.50,111.78,0,0.00,0.00,0.00,0.00,0.00,0.00,0,111.78,20.00,100.00,HEDEF YOK
1765054243.80,87.17,-231.33,210.24,79.62,90.00,-27.56,111.83,0,0.00,0.00,0.00,0.00,0.00,0.00,0,111.83,20.00,100.00,HEDEF YOK
1765054243.80,87.17,-231.38,210.29,79.22,90.00,-27.56,111.83,0,0.00,0.00,0.00,0.00,0.00,0.00,0,111.83,20.00,100.00,HEDEF YOK
1765054243.80,87.17,-231.39,210.31,78.82,90.00,-27.56,111.83,0,0.00,0.00,0.00,0.00,0.00,0.00,0,111.83,20.00,100.00,HEDEF YOK
1765054243.80,87.17,-231.56,210.50,78.43,90.00,-27.56,111.83,0,0.00,0.00,0.00,0.00,0.00,0.00,0,111.83,20.00,100.00,HEDEF YOK
1765054244.06,86.75,-245.25,225.97,80.00,90.00,-27.62,111.86,0,0.00,0.00,0.00,0.00,0.00,0.00,0,111.86,20.00,100.00,HEDEF YOK
1765054244.06,86.75,-245.27,225.99,79.60,90.00,-27.62,111.86,0,0.00,0.00,0.00,0.00,0.00,0.00,0,111.86,20.00,100.00,HEDEF YOK
1765054244.06,86.75,-245.28,226.00,79.20,90.00,-27.62,111.86,0,0.00,0.00,0.00,0.00,0.00,0.00,0,111.86,20.00,100.00,HEDEF YOK
1765054244.06,86.75,-245.39,226.12,78.81,90.00,-27.62,111.86,0,0.00,0.00,0.00,0.00,0.00,0.00,0,111.86,20.00,100.00,HEDEF YOK
1765054244.30,85.94,-257.80,240.58,80.00,90.00,-27.68,111.88,0,0.00,0.00,0.00,0.00,0.00,0.00,0,111.88,20.00,100.00,HEDEF YOK
1765054244.30,85.94,-257.81,240.60,79.60,90.00,-27.68,111.88,0,0.00,0.00,0.00,0.00,0.00,0.00,0,111.88,20.00,100.00,HEDEF YOK
1765054244.30,85.94,-257.82,240.61,79.20,90.00,-27.68,111.88,0,0.00,0.00,0.00,0.00,0.00,0.00,0,111.88,20.00,100.00,HEDEF YOK
1765054244.30,85.93,-257.93,240.74,78.81,90.00,-27.68,111.88,0,0.00,0.00,0.00,0.00,0.00,0.00,0,111.88,20.00,100.00,HEDEF YOK
1765054244.56,84.61,-271.24,256.70,80.00,90.00,-27.75,111.92,0,0.00,0.00,0.00,0.00,0.00,0.00,0,111.92,20.00,100.00,HEDEF YOK
1765054244.56,84.61,-271.27,256.74,79.60,90.00,-27.75,111.92,0,0.00,0.00,0.00,0.00,0.00,0.00,0,111.92,20.00,100.00,HEDEF YOK
1765054244.56,84.61,-271.30,256.78,79.20,90.00,-27.76,111.92,0,0.00,0.00,0.00,0.00,0.00,0.00,0,111.92,20.00,100.00,HEDEF YOK
1765054244.57,84.59,-271.42,256.93,78.81,90.00,-27.76,111.92,0,0.00,0.00,0.00,0.00,0.00,0.00,0,111.92,20.00,100.00,HEDEF YOK
1765054244.80,83.02,-283.32,271.61,80.00,90.00,-27.81,111.95,0,0.00,0.00,0.00,0.00,0.00,0.00,0,111.95,20.00,100.00,HEDEF YOK
1765054244.80,83.01,-283.35,271.65,79.60,90.00,-27.81,111.95,0,0.00,0.00,0.00,0.00,0.00,0.00,0,111.95,20.00,100.00,HEDEF YOK
1765054244.80,83.01,-283.36,271.67,79.20,90.00,-27.81,111.95,0,0.00,0.00,0.00,0.00,0.00,0.00,0,111.95,20.00,100.00,HEDEF YOK
1765054244.81,82.99,-283.50,271.83,78.81,90.00,-27.81,111.95,0,0.00,0.00,0.00,0.00,0.00,0.00,0,111.95,20.00,100.00,HEDEF YOK
1765054245.06,80.92,-296.04,287.74,80.00,90.00,-27.88,111.97,0,0.00,0.00,0.00,0.00,0.00,0.00,0,111.97,20.00,100.00,HEDEF YOK
1765054245.06,80.91,-296.06,287.77,79.60,90.00,-27.88,111.97,0,0.00,0.00,0.00,0.00,0.00,0.00,0,111.97,20.00,100.00,HEDEF YOK
1765054245.06,80.91,-296.08,287.80,79.20,90.00,-27.88,111.97,0,0.00,0.00,0.00,0.00,0.00,0.00,0,111.97,20.00,100.00,HEDEF YOK
1765054245.06,80.89,-296.18,287.92,78.81,90.00,-27.88,111.97,0,0.00,0.00,0.00,0.00,0.00,0.00,0,111.97,20.00,100.00,HEDEF YOK
1765054245.30,78.56,-307.95,303.26,80.00,90.00,-27.95,112.00,0,0.00,0.00,0.00,0.00,0.00,0.00,0,112.00,20.00,100.00,HEDEF YOK
1765054245.31,78.56,-307.97,303.28,79.60,90.00,-27.95,112.00,0,0.00,0.00,0.00,0.00,0.00,0.00,0,112.00,20.00,100.00,HEDEF YOK
1765054245.31,78.55,-307.98,303.30,79.20,90.00,-27.95,112.00,0,0.00,0.00,0.00,0.00,0.00,0.00,0,112.00,20.00,100.00,HEDEF YOK
1765054245.31,78.53,-308.09,303.45,78.81,90.00,-27.95,112.00,0,0.00,0.00,0.00,0.00,0.00,0.00,0,112.00,20.00,100.00,HEDEF YOK
1765054245.56,75.74,-320.22,319.66,80.00,90.00,-28.03,112.04,0,0.00,0.00,0.00,0.00,0.00,0.00,0,112.04,20.00,100.00,HEDEF YOK
1765054245.56,75.73,-320.23,319.67,79.60,90.00,-28.03,112.04,0,0.00,0.00,0.00,0.00,0.00,0.00,0,112.04,20.00,100.00,HEDEF YOK
1765054245.56,75.73,-320.24,319.68,79.20,90.00,-28.03,112.04,0,0.00,0.00,0.00,0.00,0.00,0.00,0,112.04,20.00,100.00,HEDEF YOK
1765054245.56,75.70,-320.37,319.87,78.81,90.00,-28.03,112.04,0,0.00,0.00,0.00,0.00,0.00,0.00,0,112.04,20.00,100.00,HEDEF YOK
1765054245.80,72.81,-331.42,335.01,80.00,90.00,-28.10,112.06,0,0.00,0.00,0.00,0.00,0.00,0.00,0,112.06,20.00,100.00,HEDEF YOK
1765054245.80,72.80,-331.43,335.03,79.60,90.00,-28.10,112.06,0,0.00,0.00,0.00,0.00,0.00,0.00,0,112.06,20.00,100.00,HEDEF YOK
1765054245.80,72.80,-331.45,335.05,79.20,90.00,-28.10,112.06,0,0.00,0.00,0.00,0.00,0.00,0.00,0,112.06,20.00,100.00,HEDEF YOK
1765054245.80,72.77,-331.55,335.19,78.81,90.00,-28.10,112.06,0,0.00,0.00,0.00,0.00,0.00,0.00,0,112.06,20.00,100.00,HEDEF YOK
1765054246.06,69.28,-343.47,351.94,80.00,90.00,-28.16,112.09,0,0.00,0.00,0.00,0.00,0.00,0.00,0,112.09,20.00,100.00,HEDEF YOK
1765054246.06,69.27,-343.48,351.96,79.60,90.00,-28.16,112.09,0,0.00,0.00,0.00,0.00,0.00,0.00,0,112.09,20.00,100.00,HEDEF YOK
1765054246.06,69.26,-343.51,352.00,79.20,90.00,-28.16,112.09,0,0.00,0.00,0.00,0.00,0.00,0.00,0,112.09,20.00,100.00,HEDEF YOK
1765054246.07,69.19,-343.73,352.31,78.81,90.00,-28.16,112.09,0,0.00,0.00,0.00,0.00,0.00,0.00,0,112.09,20.00,100.00,HEDEF YOK
1765054246.30,65.77,-354.32,367.54,80.00,90.00,-28.24,112.13,0,0.00,0.00,0.00,0.00,0.00,0.00,0,112.13,20.00,100.00,HEDEF YOK
1765054246.30,65.77,-354.33,367.56,79.60,90.00,-28.24,112.13,0,0.00,0.00,0.00,0.00,0.00,0.00,0,112.13,20.00,100.00,HEDEF YOK
1765054246.30,65.76,-354.33,367.57,79.20,90.00,-28.24,112.13,0,0.00,0.00,0.00,0.00,0.00,0.00,0,112.13,20.00,100.00,HEDEF YOK
1765054246.30,65.74,-354.41,367.68,78.81,90.00,-28.24,112.13,0,0.00,0.00,0.00,0.00,0.00,0.00,0,112.13,20.00,100.00,HEDEF YOK
1765054246.56,61.66,-365.94,384.66,80.00,90.00,-28.30,112.16,0,0.00,0.00,0.00,0.00,0.00,0.00,0,112.16,20.00,100.00,HEDEF YOK
1765054246.56,61.65,-365.95,384.68,79.60,90.00,-28.30,112.16,0,0.00,0.00,0.00,0.00,0.00,0.00,0,112.16,20.00,100.00,HEDEF YOK
1765054246.56,61.65,-365.97,384.71,79.20,90.00,-28.30,112.16,0,0.00,0.00,0.00,0.00,0.00,0.00,0,112.16,20.00,100.00,HEDEF YOK
1765054246.57,61.59,-366.12,384.93,78.81,90.00,-28.30,112.16,0,0.00,0.00,0.00,0.00,0.00,0.00,0,112.16,20.00,100.00,HEDEF YOK
1765054246.80,57.67,-376.35,400.35,80.00,90.00,-28.37,112.20,0,0.00,0.00,0.00,0.00,0.00,0.00,0,112.20,20.00,100.00,HEDEF YOK
1765054246.80,57.66,-376.37,400.37,79.60,90.00,-28.37,112.20,0,0.00,0.00,0.00,0.00,0.00,0.00,0,112.20,20.00,100.00,HEDEF YOK
1765054246.80,57.66,-376.38,400.39,79.20,90.00,-28.37,112.20,0,0.00,0.00,0.00,0.00,0.00,0.00,0,112.20,20.00,100.00,HEDEF YOK
1765054246.81,57.62,-376.47,400.53,78.81,90.00,-28.37,112.20,0,0.00,0.00,0.00,0.00,0.00,0.00,0,112.20,20.00,100.00,HEDEF YOK
1765054247.06,53.15,-387.33,417.27,80.00,90.00,-28.43,112.23,0,0.00,0.00,0.00,0.00,0.00,0.00,0,112.23,20.00,100.00,HEDEF YOK
1765054247.06,53.14,-387.35,417.30,79.60,90.00,-28.43,112.23,0,0.00,0.00,0.00,0.00,0.00,0.00,0,112.23,20.00,100.00,HEDEF YOK
1765054247.06,53.13,-387.38,417.35,79.20,90.00,-28.43,112.23,0,0.00,0.00,0.00,0.00,0.00,0.00,0,112.23,20.00,100.00,HEDEF YOK
1765054247.06,53.09,-387.46,417.47,78.81,90.00,-28.44,112.23,0,0.00,0.00,0.00,0.00,0.00,0.00,0,112.23,20.00,100.00,HEDEF YOK
1765054247.30,48.74,-397.36,433.05,80.00,90.00,-28.50,112.27,0,0.00,0.00,0.00,0.00,0.00,0.00,0,112.27,20.00,100.00,HEDEF YOK
1765054247.30,48.73,-397.37,433.06,79.60,90.00,-28.50,112.27,0,0.00,0.00,0.00,0.00,0.00,0.00,0,112.27,20.00,100.00,HEDEF YOK
1765054247.30,48.72,-397.40,433.11,79.20,90.00,-28.50,112.27,0,0.00,0.00,0.00,0.00,0.00,0.00,0,112.27,20.00,100.00,HEDEF YOK
1765054247.30,48.66,-397.53,433.32,78.81,90.00,-28.50,112.27,0,0.00,0.00,0.00,0.00,0.00,0.00,0,112.27,20.00,100.00,HEDEF YOK
1765054247.56,43.68,-408.18,450.45,80.00,90.00,-28.58,112.31,0,0.00,0.00,0.00,0.00,0.00,0.00,0,112.31,20.00,100.00,HEDEF YOK
1765054247.56,43.67,-408.20,450.49,79.60,90.00,-28.58,112.31,0,0.00,0.00,0.00,0.00,0.00,0.00,0,112.31,20.00,100.00,HEDEF YOK
1765054247.56,43.66,-408.22,450.51,79.20,90.00,-28.58,112.31,0,0.00,0.00,0.00,0.00,0.00,0.00,0,112.31,20.00,100.00,HEDEF YOK
1765054247.57,43.59,-408.36,450.75,78.81,90.00,-28.58,112.31,0,0.00,0.00,0.00,0.00,0.00,0.00,0,112.31,20.00,100.00,HEDEF YOK
1765054247.80,38.87,-417.91,466.42,80.00,90.00,-28.65,112.33,0,0.00,0.00,0.00,0.00,0.00,0.00,0,112.33,20.00,100.00,HEDEF YOK
1765054247.80,38.87,-417.92,466.44,79.60,90.00,-28.65,112.33,0,0.00,0.00,0.00,0.00,0.00,0.00,0,112.33,20.00,100.00,HEDEF YOK
1765054247.80,38.86,-417.93,466.45,79.20,90.00,-28.65,112.33,0,0.00,0.00,0.00,0.00,0.00,0.00,0,112.33,20.00,100.00,HEDEF YOK
1765054247.80,38.82,-418.00,466.58,78.81,90.00,-28.65,112.33,0,0.00,0.00,0.00,0.00,0.00,0.00,0,112.33,20.00,100.00,HEDEF YOK
1765054248.06,33.42,-428.38,483.97,80.00,90.00,-28.72,112.38,0,0.00,0.00,0.00,0.00,0.00,0.00,0,112.38,20.00,100.00,HEDEF YOK
1765054248.06,33.41,-428.39,483.99,79.60,90.00,-28.72,112.38,0,0.00,0.00,0.00,0.00,0.00,0.00,0,112.38,20.00,100.00,HEDEF YOK
1765054248.06,33.41,-428.40,484.01,79.20,90.00,-28.72,112.38,0,0.00,0.00,0.00,0.00,0.00,0.00,0,112.38,20.00,100.00,HEDEF YOK
1765054248.07,33.36,-428.49,484.16,78.81,90.00,-28.72,112.38,0,0.00,0.00,0.00,0.00,0.00,0.00,0,112.38,20.00,100.00,HEDEF YOK
1765054248.30,28.32,-437.72,499.95,80.00,90.00,-28.79,112.43,0,0.00,0.00,0.00,0.00,0.00,0.00,0,112.43,20.00,100.00,HEDEF YOK
1765054248.30,28.30,-437.74,500.00,79.60,90.00,-28.79,112.43,0,0.00,0.00,0.00,0.00,0.00,0.00,0,112.43,20.00,100.00,HEDEF YOK
1765054248.30,28.29,-437.77,500.05,79.20,90.00,-28.79,112.43,0,0.00,0.00,0.00,0.00,0.00,0.00,0,112.43,20.00,100.00,HEDEF YOK
1765054248.31,28.20,-437.92,500.30,78.81,90.00,-28.79,112.43,0,0.00,0.00,0.00,0.00,0.00,0.00,0,112.43,20.00,100.00,HEDEF YOK
1765054248.56,22.55,-447.82,517.58,80.00,90.00,-28.86,112.48,0,0.00,0.00,0.00,0.00,0.00,0.00,0,112.48,20.00,100.00,HEDEF YOK
1765054248.56,22.54,-447.83,517.59,79.60,90.00,-28.86,112.48,0,0.00,0.00,0.00,0.00,0.00,0.00,0,112.48,20.00,100.00,HEDEF YOK
1765054248.56,22.54,-447.83,517.61,79.20,90.00,-28.86,112.48,0,0.00,0.00,0.00,0.00,0.00,0.00,0,112.48,20.00,100.00,HEDEF YOK
1765054248.57,22.50,-447.91,517.73,78.81,90.00,-28.86,112.48,0,0.00,0.00,0.00,0.00,0.00,0.00,0,112.48,20.00,100.00,HEDEF YOK
1765054248.80,17.15,-456.89,533.72,80.00,90.00,-28.93,112.50,0,0.00,0.00,0.00,0.00,0.00,0.00,0,112.50,20.00,100.00,HEDEF YOK
1765054248.80,17.15,-456.90,533.73,79.60,90.00,-28.93,112.50,0,0.00,0.00,0.00,0.00,0.00,0.00,0,112.50,20.00,100.00,HEDEF YOK
1765054248.80,17.14,-456.91,533.75,79.20,90.00,-28.93,112.50,0,0.00,0.00,0.00,0.00,0.00,0.00,0,112.50,20.00,100.00,HEDEF YOK
1765054248.81,17.10,-456.97,533.86,78.81,90.00,-28.93,112.50,0,0.00,0.00,0.00,0.00,0.00,0.00,0,112.50,20.00,100.00,HEDEF YOK
1765054249.06,11.25,-466.43,551.03,80.00,90.00,-29.01,112.53,0,0.00,0.00,0.00,0.00,0.00,0.00,0,112.53,20.00,100.00,HEDEF YOK
1765054249.06,11.24,-466.45,551.06,79.60,90.00,-29.01,112.53,0,0.00,0.00,0.00,0.00,0.00,0.00,0,112.53,20.00,100.00,HEDEF YOK
1765054249.06,11.24,-466.46,551.07,79.20,90.00,-29.01,112.53,0,0.00,0.00,0.00,0.00,0.00,0.00,0,112.53,20.00,100.00,HEDEF YOK
1765054249.06,11.15,-466.59,551.32,78.81,90.00,-29.01,112.53,0,0.00,0.00,0.00,0.00,0.00,0.00,0,112.53,20.00,100.00,HEDEF YOK
1765054249.30,5.63,-475.21,567.25,80.00,90.00,-29.09,112.55,0,0.00,0.00,0.00,0.00,0.00,0.00,0,112.55,20.00,100.00,HEDEF YOK
1765054249.30,5.63,-475.22,567.27,79.60,90.00,-29.09,112.55,0,0.00,0.00,0.00,0.00,0.00,0.00,0,112.55,20.00,100.00,HEDEF YOK
1765054249.30,5.62,-475.22,567.29,79.20,90.00,-29.09,112.55,0,0.00,0.00,0.00,0.00,0.00,0.00,0,112.55,20.00,100.00,HEDEF YOK
1765054249.30,5.57,-475.30,567.42,78.81,90.00,-29.09,112.55,0,0.00,0.00,0.00,0.00,0.00,0.00,0,112.55,20.00,100.00,HEDEF YOK
1765054249.56,-0.61,-484.64,585.03,80.00,90.00,-29.17,112.58,0,0.00,0.00,0.00,0.00,0.00,0.00,0,112.58,20.00,100.00,HEDEF YOK
1765054249.56,-0.62,-484.65,585.05,79.60,90.00,-29.17,112.58,0,0.00,0.00,0.00,0.00,0.00,0.00,0,112.58,20.00,100.00,HEDEF YOK
1765054249.56,-0.63,-484.66,585.08,79.20,90.00,-29.17,112.58,0,0.00,0.00,0.00,0.00,0.00,0.00,0,112.58,20.00,100.00,HEDEF YOK
1765054249.57,-0.71,-484.78,585.29,78.81,90.00,-29.17,112.58,0,0.00,0.00,0.00,0.00,0.00,0.00,0,112.58,20.00,100.00,HEDEF YOK
1765054249.80,-6.40,-493.11,601.30,80.00,90.00,-29.24,112.62,0,0.00,0.00,0.00,0.00,0.00,0.00,0,112.62,20.00,100.00,HEDEF YOK
1765054249.80,-6.42,-493.13,601.34,79.60,90.00,-29.24,112.62,0,0.00,0.00,0.00,0.00,0.00,0.00,0,112.62,20.00,100.00,HEDEF YOK
1765054249.80,-6.42,-493.14,601.35,79.20,90.00,-29.24,112.62,0,0.00,0.00,0.00,0.00,0.00,0.00,0,112.62,20.00,100.00,HEDEF YOK
1765054249.80,-6.47,-493.21,601.49,78.81,90.00,-29.24,112.62,0,0.00,0.00,0.00,0.00,0.00,0.00,0,112.62,20.00,100.00,HEDEF YOK
1765054250.06,-12.84,-502.27,619.21,80.00,90.00,-29.32,112.67,0,0.00,0.00,0.00,0.00,0.00,0.00,0,88.54,22.00,100.00,SAHA DISI
1765054250.06,-12.85,-502.28,619.24,79.60,90.00,-29.32,112.67,0,0.00,0.00,0.00,0.00,0.00,0.00,0,88.53,22.00,100.00,SAHA DISI
1765054250.06,-12.86,-502.29,619.26,79.20,90.00,-29.32,112.68,0,0.00,0.00,0.00,0.00,0.00,0.00,0,88.53,22.00,100.00,SAHA DISI
1765054250.07,-12.94,-502.41,619.49,78.81,90.00,-29.32,112.68,0,0.00,0.00,0.00,0.00,0.00,0.00,0,88.52,22.00,100.00,SAHA DISI
1765054250.30,-18.76,-510.46,635.55,80.00,90.00,-29.38,112.71,0,0.00,0.00,0.00,0.00,0.00,0.00,0,87.90,22.00,100.00,SAHA DISI
1765054250.30,-18.76,-510.47,635.56,79.60,90.00,-29.38,112.71,0,0.00,0.00,0.00,0.00,0.00,0.00,0,87.90,22.00,100.00,SAHA DISI
1765054250.30,-18.77,-510.47,635.58,79.20,90.00,-29.38,112.71,0,0.00,0.00,0.00,0.00,0.00,0.00,0,87.89,22.00,100.00,SAHA DISI
1765054250.30,-18.81,-510.54,635.70,78.81,90.00,-29.38,112.71,0,0.00,0.00,0.00,0.00,0.00,0.00,0,87.89,22.00,100.00,SAHA DISI
1765054250.56,-25.31,-519.30,653.51,80.00,90.00,-29.46,112.76,0,0.00,0.00,0.00,0.00,0.00,0.00,0,87.21,22.00,100.00,SAHA DISI
1765054250.56,-25.32,-519.32,653.55,79.60,90.00,-29.46,112.76,0,0.00,0.00,0.00,0.00,0.00,0.00,0,87.21,22.00,100.00,SAHA DISI
1765054250.57,-25.34,-519.34,653.60,79.20,90.00,-29.46,112.76,0,0.00,0.00,0.00,0.00,0.00,0.00,0,87.21,22.00,100.00,SAHA DISI
1765054250.57,-25.44,-519.48,653.88,78.81,90.00,-29.46,112.76,0,0.00,0.00,0.00,0.00,0.00,0.00,0,87.20,22.00,100.00,SAHA DISI
1765054250.80,-31.32,-527.23,669.92,80.00,90.00,-29.54,112.80,0,0.00,0.00,0.00,0.00,0.00,0.00,0,86.60,22.00,100.00,SAHA DISI
1765054250.80,-31.32,-527.24,669.94,79.60,90.00,-29.54,112.80,0,0.00,0.00,0.00,0.00,0.00,0.00,0,86.60,22.00,100.00,SAHA DISI
1765054250.80,-31.33,-527.24,669.95,79.20,90.00,-29.54,112.80,0,0.00,0.00,0.00,0.00,0.00,0.00,0,86.60,22.00,100.00,SAHA DISI
1765054250.81,-31.39,-527.32,670.11,78.81,90.00,-29.54,112.80,0,0.00,0.00,0.00,0.00,0.00,0.00,0,86.59,22.00,100.00,SAHA DISI
1765054251.06,-37.83,-535.64,687.65,80.00,90.00,-29.62,112.85,0,0.00,0.00,0.00,0.00,0.00,0.00,0,85.96,22.00,100.00,SAHA DISI
1765054251.06,-37.85,-535.65,687.68,79.60,90.00,-29.62,112.85,0,0.00,0.00,0.00,0.00,0.00,0.00,0,85.96,22.00,100.00,SAHA DISI
1765054251.06,-37.86,-535.67,687.71,79.20,90.00,-29.62,112.85,0,0.00,0.00,0.00,0.00,0.00,0.00,0,85.96,22.00,100.00,SAHA DISI
1765054251.06,-37.90,-535.73,687.84,78.81,90.00,-29.62,112.85,0,0.00,0.00,0.00,0.00,0.00,0.00,0,85.95,22.00,100.00,SAHA DISI
1765054251.30,-43.90,-543.31,704.15,80.00,90.00,-29.71,112.89,0,0.00,0.00,0.00,0.00,0.00,0.00,0,85.38,22.00,100.00,SAHA DISI
1765054251.30,-43.92,-543.34,704.20,79.60,90.00,-29.71,112.89,0,0.00,0.00,0.00,0.00,0.00,0.00,0,85.38,22.00,100.00,SAHA DISI
1765054251.30,-43.94,-543.36,704.25,79.20,90.00,-29.71,112.89,0,0.00,0.00,0.00,0.00,0.00,0.00,0,85.38,22.00,100.00,SAHA DISI
1765054251.30,-44.03,-543.48,704.50,78.81,90.00,-29.71,112.89,0,0.00,0.00,0.00,0.00,0.00,0.00,0,85.37,22.00,100.00,SAHA DISI
1765054251.56,-50.60,-551.63,722.34,80.00,90.00,-29.80,112.94,0,0.00,0.00,0.00,0.00,0.00,0.00,0,84.76,22.00,100.00,SAHA DISI
1765054251.56,-50.60,-551.63,722.36,79.60,90.00,-29.80,112.94,0,0.00,0.00,0.00,0.00,0.00,0.00,0,84.76,22.00,100.00,SAHA DISI
1765054251.56,-50.61,-551.64,722.37,79.20,90.00,-29.80,112.94,0,0.00,0.00,0.00,0.00,0.00,0.00,0,84.76,22.00,100.00,SAHA DISI
1765054251.56,-50.65,-551.69,722.49,78.81,90.00,-29.80,112.94,0,0.00,0.00,0.00,0.00,0.00,0.00,0,84.75,22.00,100.00,SAHA DISI
1765054251.80,-56.69,-559.06,738.94,80.00,90.00,-29.89,112.97,0,0.00,0.00,0.00,0.00,0.00,0.00,0,84.21,22.00,100.00,SAHA DISI
1765054251.80,-56.71,-559.08,738.98,79.60,90.00,-29.89,112.97,0,0.00,0.00,0.00,0.00,0.00,0.00,0,84.21,22.00,100.00,SAHA DISI
1765054251.80,-56.72,-559.09,739.01,79.20,90.00,-29.89,112.97,0,0.00,0.00,0.00,0.00,0.00,0.00,0,84.21,22.00,100.00,SAHA DISI
1765054251.80,-56.78,-559.16,739.17,78.81,90.00,-29.89,112.97,0,0.00,0.00,0.00,0.00,0.00,0.00,0,84.20,22.00,100.00,SAHA DISI
1765054252.06,-63.40,-567.11,757.26,80.00,90.00,-29.98,113.00,0,0.00,0.00,0.00,0.00,0.00,0.00,0,83.62,22.00,100.00,SAHA DISI
1765054252.06,-63.42,-567.13,757.31,79.60,90.00,-29.98,113.00,0,0.00,0.00,0.00,0.00,0.00,0.00,0,83.62,22.00,100.00,SAHA DISI
1765054252.06,-63.43,-567.15,757.36,79.20,90.00,-29.98,113.00,0,0.00,0.00,0.00,0.00,0.00,0.00,0,83.62,22.00,100.00,SAHA DISI
1765054252.07,-63.48,-567.21,757.50,78.81,90.00,-29.98,113.00,0,0.00,0.00,0.00,0.00,0.00,0.00,0,83.61,22.00,100.00,SAHA DISI
1765054252.30,-69.49,-574.31,774.00,80.00,90.00,-30.06,113.05,0,0.00,0.00,0.00,0.00,0.00,0.00,0,83.10,22.00,100.00,SAHA DISI
1765054252.30,-69.52,-574.34,774.06,79.60,90.00,-30.06,113.05,0,0.00,0.00,0.00,0.00,0.00,0.00,0,83.10,22.00,100.00,SAHA DISI
1765054252.30,-69.52,-574.35,774.08,79.20,90.00,-30.06,113.05,0,0.00,0.00,0.00,0.00,0.00,0.00,0,83.10,22.00,100.00,SAHA DISI
1765054252.31,-69.57,-574.40,774.21,78.81,90.00,-30.06,113.05,0,0.00,0.00,0.00,0.00,0.00,0.00,0,83.09,22.00,100.00,SAHA DISI
1765054252.56,-76.12,-582.05,792.33,80.00,90.00,-30.16,113.10,0,0.00,0.00,0.00,0.00,0.00,0.00,0,82.55,22.00,100.00,SAHA DISI
1765054252.56,-76.14,-582.06,792.37,79.60,90.00,-30.16,113.10,0,0.00,0.00,0.00,0.00,0.00,0.00,0,82.55,22.00,100.00,SAHA DISI
1765054252.56,-76.14,-582.07,792.39,79.20,90.00,-30.16,113.10,0,0.00,0.00,0.00,0.00,0.00,0.00,0,82.55,22.00,100.00,SAHA DISI
1765054252.57,-76.21,-582.15,792.58,78.81,90.00,-30.16,113.10,0,0.00,0.00,0.00,0.00,0.00,0.00,0,82.54,22.00,100.00,SAHA DISI
1765054252.80,-82.16,-589.00,809.16,80.00,90.00,-30.25,113.15,0,0.00,0.00,0.00,0.00,0.00,0.00,0,82.06,22.00,100.00,SAHA DISI
1765054252.80,-82.17,-589.02,809.19,79.60,90.00,-30.25,113.15,0,0.00,0.00,0.00,0.00,0.00,0.00,0,82.06,22.00,100.00,SAHA DISI
1765054252.80,-82.18,-589.02,809.21,79.20,90.00,-30.25,113.15,0,0.00,0.00,0.00,0.00,0.00,0.00,0,82.06,22.00,100.00,SAHA DISI
1765054252.81,-82.27,-589.13,809.46,78.81,90.00,-30.25,113.15,0,0.00,0.00,0.00,0.00,0.00,0.00,0,82.05,22.00,100.00,SAHA DISI
1765054253.06,-88.60,-596.33,827.26,80.00,90.00,-30.35,113.18,0,0.00,0.00,0.00,0.00,0.00,0.00,0,81.55,22.00,100.00,SAHA DISI
1765054253.06,-88.60,-596.34,827.28,79.60,90.00,-30.35,113.18,0,0.00,0.00,0.00,0.00,0.00,0.00,0,81.55,22.00,100.00,SAHA DISI
1765054253.06,-88.61,-596.34,827.29,79.20,90.00,-30.35,113.18,0,0.00,0.00,0.00,0.00,0.00,0.00,0,81.55,22.00,100.00,SAHA DISI
1765054253.06,-88.65,-596.39,827.42,78.81,90.00,-30.35,113.18,0,0.00,0.00,0.00,0.00,0.00,0.00,0,81.55,22.00,100.00,SAHA DISI
1765054253.30,-94.58,-603.07,844.29,80.00,90.00,-30.44,113.23,0,0.00,0.00,0.00,0.00,0.00,0.00,0,81.09,22.00,100.00,SAHA DISI
1765054253.30,-94.59,-603.08,844.31,79.60,90.00,-30.44,113.23,0,0.00,0.00,0.00,0.00,0.00,0.00,0,81.09,22.00,100.00,SAHA DISI
1765054253.30,-94.60,-603.09,844.33,79.20,90.00,-30.44,113.23,0,0.00,0.00,0.00,0.00,0.00,0.00,0,81.09,22.00,100.00,SAHA DISI
1765054253.30,-94.67,-603.17,844.54,78.81,90.00,-30.45,113.23,0,0.00,0.00,0.00,0.00,0.00,0.00,0,81.08,22.00,100.00,SAHA DISI
1765054253.56,-101.01,-610.25,862.82,80.00,90.00,-30.55,113.28,0,0.00,0.00,0.00,0.00,0.00,0.00,0,80.60,22.00,100.00,SAHA DISI
1765054253.56,-101.02,-610.26,862.85,79.60,90.00,-30.55,113.28,0,0.00,0.00,0.00,0.00,0.00,0.00,0,80.60,22.00,100.00,SAHA DISI
1765054253.56,-101.03,-610.28,862.89,79.20,90.00,-30.55,113.28,0,0.00,0.00,0.00,0.00,0.00,0.00,0,80.60,22.00,100.00,SAHA DISI
1765054253.57,-101.13,-610.39,863.18,78.81,90.00,-30.55,113.28,0,0.00,0.00,0.00,0.00,0.00,0.00,0,80.59,22.00,100.00,SAHA DISI
1765054253.80,-106.84,-616.71,879.90,80.00,90.00,-30.65,113.33,0,0.00,0.00,0.00,0.00,0.00,0.00,0,80.17,22.00,100.00,SAHA DISI
1765054253.80,-106.85,-616.72,879.91,79.60,90.00,-30.65,113.33,0,0.00,0.00,0.00,0.00,0.00,0.00,0,80.17,22.00,100.00,SAHA DISI
1765054253.80,-106.85,-616.73,879.93,79.20,90.00,-30.65,113.33,0,0.00,0.00,0.00,0.00,0.00,0.00,0,80.17,22.00,100.00,SAHA DISI
1765054253.80,-106.89,-616.77,880.05,78.81,90.00,-30.65,113.33,0,0.00,0.00,0.00,0.00,0.00,0.00,0,80.17,22.00,100.00,SAHA DISI
1765054254.06,-113.17,-623.67,898.73,80.00,90.00,-30.76,113.38,0,0.00,0.00,0.00,0.00,0.00,0.00,0,79.72,22.00,100.00,SAHA DISI
1765054254.06,-113.18,-623.69,898.77,79.60,90.00,-30.76,113.38,0,0.00,0.00,0.00,0.00,0.00,0.00,0,79.71,22.00,100.00,SAHA DISI
1765054254.06,-113.20,-623.71,898.82,79.20,90.00,-30.76,113.38,0,0.00,0.00,0.00,0.00,0.00,0.00,0,79.71,22.00,100.00,SAHA DISI
1765054254.07,-113.25,-623.77,898.99,78.81,90.00,-30.76,113.38,0,0.00,0.00,0.00,0.00,0.00,0.00,0,79.71,22.00,100.00,SAHA DISI
1765054254.30,-118.86,-629.89,915.98,80.00,90.00,-30.87,113.43,0,0.00,0.00,0.00,0.00,0.00,0.00,0,79.31,22.00,100.00,SAHA DISI
1765054254.30,-118.87,-629.90,916.01,79.60,90.00,-30.87,113.43,0,0.00,0.00,0.00,0.00,0.00,0.00,0,79.31,22.00,100.00,SAHA DISI
1765054254.30,-118.88,-629.91,916.04,79.20,90.00,-30.87,113.43,0,0.00,0.00,0.00,0.00,0.00,0.00,0,79.31,22.00,100.00,SAHA DISI
1765054254.31,-118.95,-629.99,916.25,78.81,90.00,-30.87,113.43,0,0.00,0.00,0.00,0.00,0.00,0.00,0,79.31,22.00,100.00,SAHA DISI
1765054254.56,-124.98,-636.54,934.92,80.00,90.00,-30.98,113.49,0,0.00,0.00,0.00,0.00,0.00,0.00,0,78.89,22.00,100.00,SAHA DISI
1765054254.57,-124.98,-636.55,934.94,79.60,90.00,-30.98,113.49,0,0.00,0.00,0.00,0.00,0.00,0.00,0,78.89,22.00,100.00,SAHA DISI
1765054254.57,-124.99,-636.55,934.96,79.20,90.00,-30.98,113.49,0,0.00,0.00,0.00,0.00,0.00,0.00,0,78.89,22.00,100.00,SAHA DISI
1765054254.57,-125.03,-636.60,935.09,78.81,90.00,-30.98,113.49,0,0.00,0.00,0.00,0.00,0.00,0.00,0,78.89,22.00,100.00,SAHA DISI
1765054254.80,-130.45,-642.47,952.27,80.00,90.00,-31.09,113.52,0,0.00,0.00,0.00,0.00,0.00,0.00,0,78.52,22.00,100.00,SAHA DISI
1765054254.80,-130.46,-642.48,952.31,79.60,90.00,-31.09,113.52,0,0.00,0.00,0.00,0.00,0.00,0.00,0,78.52,22.00,100.00,SAHA DISI
1765054254.80,-130.47,-642.49,952.33,79.20,90.00,-31.09,113.52,0,0.00,0.00,0.00,0.00,0.00,0.00,0,78.52,22.00,100.00,SAHA DISI
1765054254.81,-130.51,-642.54,952.47,78.81,90.00,-31.09,113.52,0,0.00,0.00,0.00,0.00,0.00,0.00,0,78.52,22.00,100.00,SAHA DISI
1765054255.06,-136.18,-648.66,970.90,80.00,90.00,-31.20,113.58,0,0.00,0.00,0.00,0.00,0.00,0.00,0,78.14,22.00,100.00,SAHA DISI
1765054255.06,-136.20,-648.67,970.94,79.60,90.00,-31.20,113.58,0,0.00,0.00,0.00,0.00,0.00,0.00,0,78.14,22.00,100.00,SAHA DISI
1765054255.06,-136.21,-648.68,970.98,79.20,90.00,-31.20,113.58,0,0.00,0.00,0.00,0.00,0.00,0.00,0,78.14,22.00,100.00,SAHA DISI
1765054255.07,-136.30,-648.78,971.28,78.81,90.00,-31.21,113.58,0,0.00,0.00,0.00,0.00,0.00,0.00,0,78.14,22.00,100.00,SAHA DISI
1765054255.30,-141.43,-654.31,988.41,80.00,90.00,-31.31,113.62,0,0.00,0.00,0.00,0.00,0.00,0.00,0,77.80,22.00,100.00,SAHA DISI
1765054255.30,-141.44,-654.31,988.43,79.60,90.00,-31.31,113.62,0,0.00,0.00,0.00,0.00,0.00,0.00,0,77.80,22.00,100.00,SAHA DISI
1765054255.30,-141.44,-654.32,988.44,79.20,90.00,-31.31,113.62,0,0.00,0.00,0.00,0.00,0.00,0.00,0,77.80,22.00,100.00,SAHA DISI
1765054255.30,-141.48,-654.36,988.58,78.81,90.00,-31.31,113.62,0,0.00,0.00,0.00,0.00,0.00,0.00,0,77.80,22.00,100.00,SAHA DISI
1765054255.56,-147.04,-660.35,1007.74,80.00,90.00,-31.43,113.66,0,0.00,0.00,0.00,0.00,0.00,0.00,0,77.45,22.00,100.00,SAHA DISI
1765054255.56,-147.06,-660.36,1007.78,79.60,90.00,-31.43,113.66,0,0.00,0.00,0.00,0.00,0.00,0.00,0,77.45,22.00,100.00,SAHA DISI
1765054255.56,-147.06,-660.37,1007.81,79.20,90.00,-31.43,113.66,0,0.00,0.00,0.00,0.00,0.00,0.00,0,77.45,22.00,100.00,SAHA DISI
1765054255.57,-147.12,-660.43,1008.01,78.81,90.00,-31.43,113.66,0,0.00,0.00,0.00,0.00,0.00,0.00,0,77.44,22.00,100.00,SAHA DISI
1765054255.80,-152.00,-665.68,1025.38,80.00,90.00,-31.55,113.72,0,0.00,0.00,0.00,0.00,0.00,0.00,0,77.14,22.00,100.00,SAHA DISI
1765054255.80,-152.01,-665.69,1025.41,79.60,90.00,-31.55,113.72,0,0.00,0.00,0.00,0.00,0.00,0.00,0,77.14,22.00,100.00,SAHA DISI
1765054255.80,-152.02,-665.71,1025.46,79.20,90.00,-31.55,113.72,0,0.00,0.00,0.00,0.00,0.00,0.00,0,77.14,22.00,100.00,SAHA DISI
1765054255.80,-152.07,-665.76,1025.62,78.81,90.00,-31.55,113.72,0,0.00,0.00,0.00,0.00,0.00,0.00,0,77.13,22.00,100.00,SAHA DISI
1765054256.06,-157.28,-671.38,1044.89,80.00,90.00,-31.66,113.77,0,0.00,0.00,0.00,0.00,0.00,0.00,0,76.82,22.00,100.00,SAHA DISI
1765054256.06,-157.30,-671.39,1044.94,79.60,90.00,-31.66,113.77,0,0.00,0.00,0.00,0.00,0.00,0.00,0,76.81,22.00,100.00,SAHA DISI
1765054256.06,-157.30,-671.40,1044.96,79.20,90.00,-31.66,113.77,0,0.00,0.00,0.00,0.00,0.00,0.00,0,76.81,22.00,100.00,SAHA DISI
1765054256.07,-157.34,-671.44,1045.09,78.81,90.00,-31.66,113.77,0,0.00,0.00,0.00,0.00,0.00,0.00,0,76.81,22.00,100.00,SAHA DISI
1765054256.30,-161.92,-676.40,1062.74,80.00,90.00,-31.79,113.83,0,0.00,0.00,0.00,0.00,0.00,0.00,0,76.54,22.00,100.00,SAHA DISI
1765054256.30,-161.93,-676.41,1062.77,79.60,90.00,-31.79,113.83,0,0.00,0.00,0.00,0.00,0.00,0.00,0,76.54,22.00,100.00,SAHA DISI
1765054256.30,-161.94,-676.41,1062.79,79.20,90.00,-31.79,113.83,0,0.00,0.00,0.00,0.00,0.00,0.00,0,76.54,22.00,100.00,SAHA DISI
1765054256.31,-161.97,-676.45,1062.93,78.81,90.00,-31.79,113.83,0,0.00,0.00,0.00,0.00,0.00,0.00,0,76.53,22.00,100.00,SAHA DISI
1765054256.56,-166.79,-681.69,1082.32,80.00,90.00,-31.92,113.89,0,0.00,0.00,0.00,0.00,0.00,0.00,0,76.25,22.00,100.00,SAHA DISI
1765054256.56,-166.80,-681.70,1082.36,79.60,90.00,-31.92,113.89,0,0.00,0.00,0.00,0.00,0.00,0.00,0,76.25,22.00,100.00,SAHA DISI
1765054256.57,-166.81,-681.70,1082.39,79.20,90.00,-31.93,113.89,0,0.00,0.00,0.00,0.00,0.00,0.00,0,76.25,22.00,100.00,SAHA DISI
1765054256.57,-166.88,-681.78,1082.69,78.81,90.00,-31.93,113.89,0,0.00,0.00,0.00,0.00,0.00,0.00,0,76.25,22.00,100.00,SAHA DISI
1765054256.80,-171.06,-686.35,1100.34,80.00,90.00,-32.05,113.95,0,0.00,0.00,0.00,0.00,0.00,0.00,0,76.00,22.00,100.00,SAHA DISI
1765054256.80,-171.08,-686.36,1100.39,79.60,90.00,-32.06,113.95,0,0.00,0.00,0.00,0.00,0.00,0.00,0,76.00,22.00,100.00,SAHA DISI
1765054256.80,-171.08,-686.37,1100.41,79.20,90.00,-32.06,113.95,0,0.00,0.00,0.00,0.00,0.00,0.00,0,76.00,22.00,100.00,SAHA DISI
1765054256.81,-171.11,-686.41,1100.56,78.81,90.00,-32.06,113.95,0,0.00,0.00,0.00,0.00,0.00,0.00,0,76.00,22.00,100.00,SAHA DISI
1765054257.06,-175.43,-691.15,1119.77,80.00,90.00,-32.18,114.03,0,0.00,0.00,0.00,0.00,0.00,0.00,0,75.76,22.00,100.00,SAHA DISI
1765054257.06,-175.44,-691.17,1119.83,79.60,90.00,-32.19,114.03,0,0.00,0.00,0.00,0.00,0.00,0.00,0,75.76,22.00,100.00,SAHA DISI
1765054257.06,-175.45,-691.18,1119.86,79.20,90.00,-32.19,114.03,0,0.00,0.00,0.00,0.00,0.00,0.00,0,75.76,22.00,100.00,SAHA DISI
1765054257.07,-175.50,-691.24,1120.11,78.81,90.00,-32.19,114.03,0,0.00,0.00,0.00,0.00,0.00,0.00,0,75.75,22.00,100.00,SAHA DISI
1765054257.30,-179.28,-695.44,1137.97,80.00,90.00,-32.31,114.10,0,0.00,0.00,0.00,0.00,0.00,0.00,0,75.54,22.00,100.00,SAHA DISI
1765054257.30,-179.29,-695.45,1138.01,79.60,90.00,-32.31,114.10,0,0.00,0.00,0.00,0.00,0.00,0.00,0,75.54,22.00,100.00,SAHA DISI
1765054257.30,-179.30,-695.46,1138.05,79.20,90.00,-32.31,114.10,0,0.00,0.00,0.00,0.00,0.00,0.00,0,75.54,22.00,100.00,SAHA DISI
1765054257.30,-179.34,-695.50,1138.25,78.81,90.00,-32.31,114.10,0,0.00,0.00,0.00,0.00,0.00,0.00,0,75.54,22.00,100.00,SAHA DISI
1765054257.56,-183.24,-699.90,1157.98,80.00,90.00,-32.46,114.17,0,0.00,0.00,0.00,0.00,0.00,0.00,0,75.33,22.00,100.00,SAHA DISI
1765054257.56,-183.25,-699.90,1158.00,79.60,90.00,-32.46,114.17,0,0.00,0.00,0.00,0.00,0.00,0.00,0,75.33,22.00,100.00,SAHA DISI
1765054257.56,-183.26,-699.91,1158.05,79.20,90.00,-32.46,114.17,0,0.00,0.00,0.00,0.00,0.00,0.00,0,75.33,22.00,100.00,SAHA DISI
1765054257.57,-183.29,-699.96,1158.25,78.81,90.00,-32.47,114.17,0,0.00,0.00,0.00,0.00,0.00,0.00,0,75.33,22.00,100.00,SAHA DISI
1765054257.80,-186.61,-703.75,1176.31,80.00,90.00,-32.61,114.24,0,0.00,0.00,0.00,0.00,0.00,0.00,0,75.15,22.00,100.00,SAHA DISI
1765054257.80,-186.61,-703.75,1176.33,79.60,90.00,-32.61,114.24,0,0.00,0.00,0.00,0.00,0.00,0.00,0,75.15,22.00,100.00,SAHA DISI
1765054257.80,-186.61,-703.76,1176.34,79.20,90.00,-32.61,114.24,0,0.00,0.00,0.00,0.00,0.00,0.00,0,75.15,22.00,100.00,SAHA DISI
1765054257.80,-186.64,-703.78,1176.47,78.81,90.00,-32.61,114.24,0,0.00,0.00,0.00,0.00,0.00,0.00,0,75.15,22.00,100.00,SAHA DISI
1765054258.06,-190.02,-707.73,1196.56,80.00,90.00,-32.77,114.31,0,0.00,0.00,0.00,0.00,0.00,0.00,0,74.97,22.00,100.00,SAHA DISI
1765054258.06,-190.03,-707.74,1196.59,79.60,90.00,-32.77,114.31,0,0.00,0.00,0.00,0.00,0.00,0.00,0,74.97,22.00,100.00,SAHA DISI
1765054258.06,-190.03,-707.75,1196.63,79.20,90.00,-32.77,114.31,0,0.00,0.00,0.00,0.00,0.00,0.00,0,74.97,22.00,100.00,SAHA DISI
1765054258.07,-190.07,-707.79,1196.86,78.81,90.00,-32.78,114.31,0,0.00,0.00,0.00,0.00,0.00,0.00,0,74.97,22.00,100.00,SAHA DISI
1765054258.30,-192.86,-711.13,1215.12,80.00,90.00,-32.93,114.38,0,0.00,0.00,0.00,0.00,0.00,0.00,0,74.83,22.00,100.00,SAHA DISI
1765054258.30,-192.87,-711.14,1215.16,79.60,90.00,-32.93,114.38,0,0.00,0.00,0.00,0.00,0.00,0.00,0,74.83,22.00,100.00,SAHA DISI
1765054258.30,-192.87,-711.14,1215.20,79.20,90.00,-32.93,114.38,0,0.00,0.00,0.00,0.00,0.00,0.00,0,74.83,22.00,100.00,SAHA DISI
1765054258.31,-192.89,-711.17,1215.34,78.81,90.00,-32.93,114.39,0,0.00,0.00,0.00,0.00,0.00,0.00,0,74.82,22.00,100.00,SAHA DISI
1765054258.57,-195.65,-714.57,1235.52,80.00,90.00,-33.10,114.47,0,0.00,0.00,0.00,0.00,0.00,0.00,0,74.69,22.00,100.00,SAHA DISI
1765054258.57,-195.65,-714.58,1235.54,79.60,90.00,-33.10,114.47,0,0.00,0.00,0.00,0.00,0.00,0.00,0,74.69,22.00,100.00,SAHA DISI
1765054258.57,-195.65,-714.58,1235.56,79.20,90.00,-33.10,114.47,0,0.00,0.00,0.00,0.00,0.00,0.00,0,74.69,22.00,100.00,SAHA DISI
1765054258.57,-195.67,-714.60,1235.70,78.81,90.00,-33.11,114.47,0,0.00,0.00,0.00,0.00,0.00,0.00,0,74.69,22.00,100.00,SAHA DISI
1765054258.80,-197.87,-717.44,1254.14,79.96,90.00,-33.27,114.54,0,0.00,0.00,0.00,0.00,0.00,0.00,0,74.58,22.00,100.00,SAHA DISI
1765054258.80,-197.88,-717.45,1254.19,79.56,90.00,-33.27,114.54,0,0.00,0.00,0.00,0.00,0.00,0.00,0,74.58,22.00,100.00,SAHA DISI
1765054258.80,-197.88,-717.45,1254.22,79.16,90.00,-33.27,114.54,0,0.00,0.00,0.00,0.00,0.00,0.00,0,74.58,22.00,100.00,SAHA DISI
1765054258.81,-197.92,-717.50,1254.53,78.76,90.00,-33.27,114.54,0,0.00,0.00,0.00,0.00,0.00,0.00,0,74.58,22.00,100.00,SAHA DISI
1765054259.06,-199.93,-720.24,1274.27,79.98,90.00,-33.45,114.61,0,0.00,0.00,0.00,0.00,0.00,0.00,0,74.49,22.00,100.00,SAHA DISI
1765054259.06,-199.93,-720.24,1274.30,79.58,90.00,-33.45,114.61,0,0.00,0.00,0.00,0.00,0.00,0.00,0,74.49,22.00,100.00,SAHA DISI
1765054259.06,-199.93,-720.24,1274.31,79.19,90.00,-33.45,114.61,0,0.00,0.00,0.00,0.00,0.00,0.00,0,74.49,22.00,100.00,SAHA DISI
1765054259.06,-199.95,-720.26,1274.49,78.79,90.00,-33.45,114.61,0,0.00,0.00,0.00,0.00,0.00,0.00,0,74.49,22.00,100.00,SAHA DISI
1765054259.30,-201.51,-722.56,1293.16,79.90,90.00,-33.62,114.68,0,0.00,0.00,0.00,0.00,0.00,0.00,0,74.42,22.00,100.00,SAHA DISI
1765054259.30,-201.51,-722.56,1293.18,79.50,90.00,-33.62,114.68,0,0.00,0.00,0.00,0.00,0.00,0.00,0,74.42,22.00,100.00,SAHA DISI
1765054259.30,-201.51,-722.57,1293.19,79.10,90.00,-33.62,114.68,0,0.00,0.00,0.00,0.00,0.00,0.00,0,74.42,22.00,100.00,SAHA DISI
1765054259.30,-201.52,-722.58,1293.32,78.70,90.00,-33.62,114.68,0,0.00,0.00,0.00,0.00,0.00,0.00,0,74.42,22.00,100.00,SAHA DISI
1765054259.56,-202.83,-724.76,1313.79,79.93,90.00,-33.82,114.75,0,0.00,0.00,0.00,0.00,0.00,0.00,0,74.36,22.00,100.00,SAHA DISI
1765054259.56,-202.84,-724.76,1313.82,79.53,90.00,-33.82,114.75,0,0.00,0.00,0.00,0.00,0.00,0.00,0,74.36,22.00,100.00,SAHA DISI
1765054259.56,-202.84,-724.76,1313.84,79.13,90.00,-33.82,114.75,0,0.00,0.00,0.00,0.00,0.00,0.00,0,74.36,22.00,100.00,SAHA DISI
1765054259.57,-202.85,-724.79,1314.15,78.73,90.00,-33.82,114.75,0,0.00,0.00,0.00,0.00,0.00,0.00,0,74.36,22.00,100.00,SAHA DISI
1765054259.80,-203.67,-726.45,1332.73,79.80,90.00,-34.00,114.85,0,0.00,0.00,0.00,0.00,0.00,0.00,0,74.34,22.00,100.00,SAHA DISI
1765054259.80,-203.67,-726.45,1332.75,79.40,90.00,-34.00,114.85,0,0.00,0.00,0.00,0.00,0.00,0.00,0,74.34,22.00,100.00,SAHA DISI
1765054259.80,-203.68,-726.45,1332.80,79.00,90.00,-34.00,114.85,0,0.00,0.00,0.00,0.00,0.00,0.00,0,74.34,22.00,100.00,SAHA DISI
1765054259.81,-203.68,-726.47,1333.02,78.60,90.00,-34.00,114.85,0,0.00,0.00,0.00,0.00,0.00,0.00,0,74.34,22.00,100.00,SAHA DISI
1765054260.06,-204.16,-727.93,1353.49,79.80,90.00,-34.22,114.94,0,0.00,0.00,0.00,0.00,0.00,0.00,0,74.33,22.00,100.00,SAHA DISI
1765054260.06,-204.16,-727.93,1353.52,79.40,90.00,-34.22,114.94,0,0.00,0.00,0.00,0.00,0.00,0.00,0,74.33,22.00,100.00,SAHA DISI
1765054260.07,-204.16,-727.94,1353.60,79.01,90.00,-34.22,114.94,0,0.00,0.00,0.00,0.00,0.00,0.00,0,74.33,22.00,100.00,SAHA DISI
1765054260.07,-204.16,-727.94,1353.75,78.61,90.00,-34.22,114.95,0,0.00,0.00,0.00,0.00,0.00,0.00,0,74.33,22.00,100.00,SAHA DISI
1765054260.30,-204.18,-728.92,1372.43,79.68,90.00,-34.42,115.04,0,0.00,0.00,0.00,0.00,0.00,0.00,0,74.35,22.00,100.00,SAHA DISI
1765054260.30,-204.18,-728.93,1372.48,79.28,90.00,-34.42,115.04,0,0.00,0.00,0.00,0.00,0.00,0.00,0,74.35,22.00,100.00,SAHA DISI
1765054260.30,-204.18,-728.93,1372.52,78.88,90.00,-34.42,115.04,0,0.00,0.00,0.00,0.00,0.00,0.00,0,74.35,22.00,100.00,SAHA DISI
1765054260.31,-204.18,-728.94,1372.73,78.49,90.00,-34.43,115.04,0,0.00,0.00,0.00,0.00,0.00,0.00,0,74.35,22.00,100.00,SAHA DISI
1765054260.56,-203.74,-729.61,1393.18,79.70,90.00,-34.66,115.14,0,0.00,0.00,0.00,0.00,0.00,0.00,0,74.40,22.00,100.00,SAHA DISI
1765054260.56,-203.74,-729.61,1393.19,79.30,90.00,-34.66,115.14,0,0.00,0.00,0.00,0.00,0.00,0.00,0,74.40,22.00,100.00,SAHA DISI
1765054260.57,-203.74,-729.61,1393.21,78.91,90.00,-34.66,115.14,0,0.00,0.00,0.00,0.00,0.00,0.00,0,74.40,22.00,100.00,SAHA DISI
1765054260.57,-203.73,-729.61,1393.35,78.51,90.00,-34.66,115.15,0,0.00,0.00,0.00,0.00,0.00,0.00,0,74.40,22.00,100.00,SAHA DISI
1765054260.80,-202.89,-729.84,1412.08,79.61,90.00,-34.88,115.25,0,0.00,0.00,0.00,0.00,0.00,0.00,0,74.46,22.00,100.00,SAHA DISI
1765054260.80,-202.88,-729.84,1412.10,79.21,90.00,-34.88,115.25,0,0.00,0.00,0.00,0.00,0.00,0.00,0,74.46,22.00,100.00,SAHA DISI
1765054260.80,-202.88,-729.84,1412.12,78.82,90.00,-34.88,115.25,0,0.00,0.00,0.00,0.00,0.00,0.00,0,74.46,22.00,100.00,SAHA DISI
1765054260.81,-202.88,-729.84,1412.27,78.42,90.00,-34.88,115.25,0,0.00,0.00,0.00,0.00,0.00,0.00,0,74.47,22.00,100.00,SAHA DISI
1765054261.06,-201.47,-729.65,1432.39,79.67,90.00,-35.13,115.37,0,0.00,0.00,0.00,0.00,0.00,0.00,0,74.56,22.00,100.00,SAHA DISI
1765054261.06,-201.46,-729.65,1432.43,79.27,90.00,-35.13,115.37,0,0.00,0.00,0.00,0.00,0.00,0.00,0,74.56,22.00,100.00,SAHA DISI
1765054261.06,-201.46,-729.65,1432.49,78.88,90.00,-35.13,115.37,0,0.00,0.00,0.00,0.00,0.00,0.00,0,74.57,22.00,100.00,SAHA DISI
1765054261.07,-201.43,-729.64,1432.82,78.48,90.00,-35.14,115.37,0,0.00,0.00,0.00,0.00,0.00,0.00,0,74.57,22.00,100.00,SAHA DISI
1765054261.30,-199.67,-729.06,1451.27,79.64,90.00,-35.38,115.48,0,0.00,0.00,0.00,0.00,0.00,0.00,0,74.68,22.00,100.00,SAHA DISI
1765054261.30,-199.67,-729.06,1451.29,79.24,90.00,-35.38,115.48,0,0.00,0.00,0.00,0.00,0.00,0.00,0,74.68,22.00,100.00,SAHA DISI
1765054261.30,-199.66,-729.06,1451.31,78.84,90.00,-35.38,115.48,0,0.00,0.00,0.00,0.00,0.00,0.00,0,74.68,22.00,100.00,SAHA DISI
1765054261.30,-199.65,-729.05,1451.44,78.45,90.00,-35.39,115.48,0,0.00,0.00,0.00,0.00,0.00,0.00,0,74.69,22.00,100.00,SAHA DISI
1765054261.56,-197.14,-727.92,1471.87,79.83,90.00,-35.67,115.61,0,0.00,0.00,0.00,0.00,0.00,0.00,0,74.85,22.00,100.00,SAHA DISI
1765054261.56,-197.14,-727.92,1471.93,79.43,90.00,-35.67,115.61,0,0.00,0.00,0.00,0.00,0.00,0.00,0,74.85,22.00,100.00,SAHA DISI
1765054261.56,-197.13,-727.91,1471.99,79.04,90.00,-35.67,115.61,0,0.00,0.00,0.00,0.00,0.00,0.00,0,74.85,22.00,100.00,SAHA DISI
1765054261.57,-197.09,-727.89,1472.28,78.64,90.00,-35.68,115.61,0,0.00,0.00,0.00,0.00,0.00,0.00,0,74.85,22.00,100.00,SAHA DISI
1765054261.80,-194.32,-726.42,1490.65,79.92,90.00,-35.95,115.73,0,0.00,0.00,0.00,0.00,0.00,0.00,0,75.02,22.00,100.00,SAHA DISI
1765054261.80,-194.31,-726.41,1490.67,79.52,90.00,-35.95,115.73,0,0.00,0.00,0.00,0.00,0.00,0.00,0,75.02,22.00,100.00,SAHA DISI
1765054261.80,-194.31,-726.41,1490.68,79.12,90.00,-35.95,115.73,0,0.00,0.00,0.00,0.00,0.00,0.00,0,75.02,22.00,100.00,SAHA DISI
1765054261.80,-194.29,-726.40,1490.82,78.72,90.00,-35.95,115.73,0,0.00,0.00,0.00,0.00,0.00,0.00,0,75.03,22.00,100.00,SAHA DISI
1765054262.06,-190.62,-724.23,1511.10,80.00,90.00,-36.27,115.87,0,0.00,0.00,0.00,0.00,0.00,0.00,0,75.25,22.00,100.00,SAHA DISI
1765054262.06,-190.61,-724.22,1511.15,79.60,90.00,-36.27,115.87,0,0.00,0.00,0.00,0.00,0.00,0.00,0,75.25,22.00,100.00,SAHA DISI
1765054262.06,-190.61,-724.22,1511.17,79.20,90.00,-36.27,115.87,0,0.00,0.00,0.00,0.00,0.00,0.00,0,75.25,22.00,100.00,SAHA DISI
1765054262.07,-190.57,-724.19,1511.39,78.81,90.00,-36.27,115.87,0,0.00,0.00,0.00,0.00,0.00,0.00,0,75.26,22.00,100.00,SAHA DISI
1765054262.30,-186.71,-721.74,1529.61,80.00,90.00,-36.58,116.01,0,0.00,0.00,0.00,0.00,0.00,0.00,0,75.50,22.00,100.00,SAHA DISI
1765054262.30,-186.70,-721.73,1529.66,79.60,90.00,-36.58,116.01,0,0.00,0.00,0.00,0.00,0.00,0.00,0,75.50,22.00,100.00,SAHA DISI
1765054262.30,-186.69,-721.72,1529.69,79.20,90.00,-36.58,116.01,0,0.00,0.00,0.00,0.00,0.00,0.00,0,75.50,22.00,100.00,SAHA DISI
1765054262.31,-186.66,-721.70,1529.85,78.81,90.00,-36.58,116.01,0,0.00,0.00,0.00,0.00,0.00,0.00,0,75.50,22.00,100.00,SAHA DISI
1765054262.56,-181.83,-718.45,1549.62,80.00,90.00,-36.94,116.16,0,0.00,0.00,0.00,0.00,0.00,0.00,0,75.80,22.00,100.00,SAHA DISI
1765054262.57,-181.80,-718.43,1549.72,79.60,90.00,-36.94,116.16,0,0.00,0.00,0.00,0.00,0.00,0.00,0,75.80,22.00,100.00,SAHA DISI
1765054262.57,-181.80,-718.42,1549.74,79.20,90.00,-36.94,116.16,0,0.00,0.00,0.00,0.00,0.00,0.00,0,75.80,22.00,100.00,SAHA DISI
1765054262.57,-181.75,-718.39,1549.94,78.81,90.00,-36.94,116.17,0,0.00,0.00,0.00,0.00,0.00,0.00,0,75.80,22.00,100.00,SAHA DISI
1765054262.80,-176.79,-714.90,1567.74,80.00,90.00,-37.29,116.32,0,0.00,0.00,0.00,0.00,0.00,0.00,0,76.11,22.00,100.00,SAHA DISI
1765054262.80,-176.78,-714.89,1567.78,79.60,90.00,-37.29,116.32,0,0.00,0.00,0.00,0.00,0.00,0.00,0,76.11,22.00,100.00,SAHA DISI
1765054262.81,-176.77,-714.88,1567.82,79.20,90.00,-37.29,116.32,0,0.00,0.00,0.00,0.00,0.00,0.00,0,76.11,22.00,100.00,SAHA DISI
1765054262.81,-176.72,-714.85,1567.97,78.81,90.00,-37.29,116.32,0,0.00,0.00,0.00,0.00,0.00,0.00,0,76.11,22.00,100.00,SAHA DISI
1765054263.06,-170.80,-710.52,1586.84,80.00,90.00,-37.68,116.49,0,0.00,0.00,0.00,0.00,0.00,0.00,0,76.48,22.00,100.00,SAHA DISI
1765054263.06,-170.79,-710.52,1586.86,79.60,90.00,-37.68,116.49,0,0.00,0.00,0.00,0.00,0.00,0.00,0,76.48,22.00,100.00,SAHA DISI
1765054263.06,-170.78,-710.51,1586.89,79.20,90.00,-37.68,116.49,0,0.00,0.00,0.00,0.00,0.00,0.00,0,76.48,22.00,100.00,SAHA DISI
1765054263.07,-170.67,-710.43,1587.22,78.81,90.00,-37.69,116.49,0,0.00,0.00,0.00,0.00,0.00,0.00,0,76.49,22.00,100.00,SAHA DISI
1765054263.30,-164.64,-705.88,1604.38,80.00,90.00,-38.08,116.66,0,0.00,0.00,0.00,0.00,0.00,0.00,0,76.87,22.00,100.00,SAHA DISI
1765054263.30,-164.62,-705.87,1604.41,79.60,90.00,-38.08,116.66,0,0.00,0.00,0.00,0.00,0.00,0.00,0,76.87,22.00,100.00,SAHA DISI
1765054263.30,-164.61,-705.86,1604.46,79.20,90.00,-38.08,116.66,0,0.00,0.00,0.00,0.00,0.00,0.00,0,76.87,22.00,100.00,SAHA DISI
1765054263.30,-164.54,-705.81,1604.64,78.81,90.00,-38.08,116.66,0,0.00,0.00,0.00,0.00,0.00,0.00,0,76.88,22.00,100.00,SAHA DISI
1765054263.56,-157.26,-700.18,1623.20,80.00,90.00,-38.54,116.86,0,0.00,0.00,0.00,0.00,0.00,0.00,0,77.34,22.00,100.00,SAHA DISI
1765054263.56,-157.26,-700.17,1623.22,79.60,90.00,-38.54,116.86,0,0.00,0.00,0.00,0.00,0.00,0.00,0,77.34,22.00,100.00,SAHA DISI
1765054263.56,-157.25,-700.17,1623.23,79.20,90.00,-38.54,116.86,0,0.00,0.00,0.00,0.00,0.00,0.00,0,77.34,22.00,100.00,SAHA DISI
1765054263.56,-157.20,-700.13,1623.35,78.81,90.00,-38.54,116.86,0,0.00,0.00,0.00,0.00,0.00,0.00,0,77.35,22.00,100.00,SAHA DISI
1765054263.80,-149.98,-694.40,1639.95,80.00,90.00,-38.99,117.05,0,0.00,0.00,0.00,0.00,0.00,0.00,0,77.81,22.00,100.00,SAHA DISI
1765054263.80,-149.96,-694.38,1640.00,79.60,90.00,-38.99,117.05,0,0.00,0.00,0.00,0.00,0.00,0.00,0,77.81,22.00,100.00,SAHA DISI
1765054263.80,-149.95,-694.37,1640.02,79.20,90.00,-38.99,117.05,0,0.00,0.00,0.00,0.00,0.00,0.00,0,77.81,22.00,100.00,SAHA DISI
1765054263.80,-149.87,-694.31,1640.19,78.81,90.00,-39.00,117.05,0,0.00,0.00,0.00,0.00,0.00,0.00,0,77.82,22.00,100.00,SAHA DISI
1765054264.06,-141.36,-687.39,1657.91,80.00,90.00,-39.52,117.27,0,0.00,0.00,0.00,0.00,0.00,0.00,0,78.38,22.00,100.00,SAHA DISI
1765054264.06,-141.33,-687.37,1657.95,79.60,90.00,-39.52,117.27,0,0.00,0.00,0.00,0.00,0.00,0.00,0,78.38,22.00,100.00,SAHA DISI
1765054264.07,-141.31,-687.36,1657.99,79.20,90.00,-39.52,117.27,0,0.00,0.00,0.00,0.00,0.00,0.00,0,78.38,22.00,100.00,SAHA DISI
1765054264.07,-141.23,-687.29,1658.16,78.81,90.00,-39.53,117.28,0,0.00,0.00,0.00,0.00,0.00,0.00,0,78.39,22.00,100.00,SAHA DISI
1765054264.30,-132.99,-680.45,1673.72,80.00,90.00,-40.03,117.50,0,0.00,0.00,0.00,0.00,0.00,0.00,0,78.94,22.00,100.00,SAHA DISI
1765054264.30,-132.97,-680.43,1673.75,79.60,90.00,-40.03,117.50,0,0.00,0.00,0.00,0.00,0.00,0.00,0,78.94,22.00,100.00,SAHA DISI
1765054264.30,-132.95,-680.42,1673.79,79.20,90.00,-40.03,117.50,0,0.00,0.00,0.00,0.00,0.00,0.00,0,78.94,22.00,100.00,SAHA DISI
1765054264.31,-132.86,-680.34,1673.96,78.81,90.00,-40.04,117.50,0,0.00,0.00,0.00,0.00,0.00,0.00,0,78.95,22.00,100.00,SAHA DISI
